datacoverage,elevation,elevationUnit,id,latitude,longitude,maxdate,mindate,name
0.3998,100.3,METERS,GHCND:US1ALAT0014,32.482454,-86.48538,2014-01-01,2010-01-01,"PRATTVILLE 2.7 WNW, AL US"
0.9991,146,METERS,GHCND:US1ALBB0004,33.019851,-86.92413,2010-01-01,2008-01-01,"WILTON 5.0 SSW, AL US"
0.3998,171.9,METERS,GHCND:US1ALBL0002,33.955394,-86.54389,2014-01-01,2010-01-01,"ROSA 2.8 SW, AL US"
0.9989,288,METERS,GHCND:US1ALBL0003,33.858396,-86.867902,2016-01-01,2012-01-01,"WARRIOR 4.6 NW, AL US"
0.5995,326.1,METERS,GHCND:US1ALBL0005,33.8029,-86.5601,2020-01-01,2011-01-01,"SPRINGVILLE 5.3 WNW, AL US"
0.9084,215.2,METERS,GHCND:US1ALBL0006,34.0913,-86.6066,2018-01-01,2008-01-01,"BLOUNTSVILLE 1.3 NW, AL US"
0.7993,419.4,METERS,GHCND:US1ALBL0013,33.9153,-86.3464,2020-01-01,2011-01-01,"ONEONTA 7.5 ESE, AL US"
0.9991,297.2,METERS,GHCND:US1ALBL0021,34.230519,-86.479161,2020-01-01,2015-01-01,"ARAB 7.0 S, AL US"
0.9993,32.9,METERS,GHCND:US1ALBW0001,30.548289,-87.888701,2019-01-01,2008-01-01,"FAIRHOPE 2.3 N, AL US"
0.916,48.2,METERS,GHCND:US1ALBW0003,30.6424,-87.9076,2019-01-01,2008-01-01,"DAPHNE 1.2 NNW, AL US"
0.8176,43.9,METERS,GHCND:US1ALBW0004,30.62204,-87.90138,2020-01-01,2010-01-01,"DAPHNE 0.4 SW, AL US"
0.4282,13.1,METERS,GHCND:US1ALBW0008,30.343919,-87.784803,2020-01-01,2014-01-01,"FOLEY 7.4 SW, AL US"
0.3747,27.1,METERS,GHCND:US1ALBW0009,30.403004,-87.676584,2016-01-01,2009-01-01,"FOLEY 0.5 ESE, AL US"
0.4997,34.7,METERS,GHCND:US1ALBW0013,30.56674,-87.90053,2014-01-01,2011-01-01,"FAIRHOPE 3.7 NNW, AL US"
0.4997,60,METERS,GHCND:US1ALBW0026,30.621617,-87.757781,2018-01-01,2009-01-01,"LOXLEY 0.4 SSW, AL US"
0.9994,1.8,METERS,GHCND:US1ALBW0027,30.303182,-87.562444,2018-01-01,2010-01-01,"ORANGE BEACH 2.1 NE, AL US"
0.6359,20.1,METERS,GHCND:US1ALBW0031,30.378889,-87.6975,2020-01-01,2010-01-01,"FOLEY 2.0 SSW, AL US"
0.9993,6.1,METERS,GHCND:US1ALBW0039,30.467498,-87.911498,2012-01-01,2009-01-01,"POINT CLEAR 1.6 SSW, AL US"
0.4997,13.4,METERS,GHCND:US1ALBW0040,30.50717,-87.90832,2020-01-01,2009-01-01,"FAIRHOPE 1.5 WSW, AL US"
0.7495,32,METERS,GHCND:US1ALBW0041,30.516953,-87.845522,2014-01-01,2011-01-01,"FAIRHOPE 2.3 E, AL US"
0.3635,2.1,METERS,GHCND:US1ALBW0053,30.3718,-87.6195,2019-01-01,2009-01-01,"ELBERTA 3.1 SSW, AL US"
0.9993,90.5,METERS,GHCND:US1ALBW0059,31.035867,-87.741333,2020-01-01,2013-01-01,"BAY MINETTE 10.9 N, AL US"
0.7996,39.9,METERS,GHCND:US1ALBW0065,30.53244,-87.74398,2017-01-01,2013-01-01,"SILVERHILL 0.9 SSE, AL US"
0.9991,31.7,METERS,GHCND:US1ALBW0071,30.516588,-87.847389,2020-01-01,2015-01-01,"FAIRHOPE 2.2 E, AL US"
0.9986,28,METERS,GHCND:US1ALBW0085,30.495475,-87.743959,2020-01-01,2019-01-01,"SUMMERDALE 2.7 WNW, AL US"
0.9986,7.6,METERS,GHCND:US1ALBW0086,30.483085,-87.911416,2020-01-01,2019-01-01,"POINT CLEAR 0.6 SW, AL US"
0.9986,170.4,METERS,GHCND:US1ALCB0004,32.8161,-85.1733,2012-01-01,2011-01-01,"VALLEY 0.5 N, AL US"
0.7495,96,METERS,GHCND:US1ALCC0001,31.272486,-87.118372,2020-01-01,2017-01-01,"CASTLEBERRY 5.6 WSW, AL US"
0.4998,476.4,METERS,GHCND:US1ALCE0001,34.481078,-85.522125,2015-01-01,2010-01-01,"MENTONE 6.9 SSE, AL US"
0.9991,105.2,METERS,GHCND:US1ALCF0004,31.33608,-85.87092,2012-01-01,2010-01-01,"ENTERPRISE 1.5 WNW, AL US"
0.9993,75,METERS,GHCND:US1ALCK0003,31.644663,-87.854,2017-01-01,2014-01-01,"GROVE HILL 6.1 SW, AL US"
0.7137,237.1,METERS,GHCND:US1ALCM0003,34.17031,-86.76244,2018-01-01,2012-01-01,"CULLMAN 4.4 E, AL US"
0.916,185,METERS,GHCND:US1ALCM0004,34.065585,-86.735358,2020-01-01,2009-01-01,"HANCEVILLE 1.6 E, AL US"
0.9993,171.3,METERS,GHCND:US1ALCM0006,34.10045,-86.93199,2020-01-01,2009-01-01,"CULLMAN 7.5 SW, AL US"
0.5452,212.1,METERS,GHCND:US1ALCN0009,33.754,-85.837,2019-01-01,2009-01-01,"WEAVER 1.6 W, AL US"
1,107.3,METERS,GHCND:US1ALCS0008,32.825232,-86.416378,2014-01-01,2013-01-01,"ROCKFORD 12.3 WSW, AL US"
0.9993,236.2,METERS,GHCND:US1ALCT0001,34.6224,-87.7941,2019-01-01,2008-01-01,"TUSCUMBIA 8.9 SW, AL US"
0.9223,154.8,METERS,GHCND:US1ALCT0004,34.729276,-87.647181,2020-01-01,2008-01-01,"MUSCLE SHOALS 1.3 SSW, AL US"
0.6917,167,METERS,GHCND:US1ALCT0005,34.76554,-87.68133,2020-01-01,2008-01-01,"SHEFFIELD 1.3 ENE, AL US"
0.6246,204.2,METERS,GHCND:US1ALCT0012,34.6854,-88.0248,2016-01-01,2009-01-01,"CHEROKEE 5.9 SW, AL US"
0.8565,196.9,METERS,GHCND:US1ALCT0014,34.7753949,-87.4736333,2016-01-01,2010-01-01,"MUSCLE SHOALS 9.7 NNE, AL US"
0.8454,396.8,METERS,GHCND:US1ALDK0008,34.534639,-85.756271,2020-01-01,2008-01-01,"SYLVANIA 3.4 ESE, AL US"
0.9993,274.3,METERS,GHCND:US1ALDK0009,34.443141,-85.715898,2020-01-01,2009-01-01,"FORT PAYNE 1.4 WSW, AL US"
1,388.9,METERS,GHCND:US1ALDK0010,34.538735,-85.911544,2011-01-01,2010-01-01,"FYFFE 6.3 NNE, AL US"
1,365.8,METERS,GHCND:US1ALDK0012,34.4719,-85.8429,2019-01-01,2017-01-01,"RAINSVILLE 1.9 S, AL US"
0.2855,93.9,METERS,GHCND:US1ALDL0001,31.47594,-85.661436,2014-01-01,2008-01-01,"OZARK 2.7 NNW, AL US"
0.9986,145.7,METERS,GHCND:US1ALDL0002,31.6071,-85.431,2009-01-01,2008-01-01,"CLOPTON 0.1 SW, AL US"
0.9991,46,METERS,GHCND:US1ALDS0001,32.404157,-87.05462,2020-01-01,2015-01-01,"SELMA 1.5 WSW, AL US"
0.8328,120.1,METERS,GHCND:US1ALEL0004,32.55035,-86.3845,2020-01-01,2009-01-01,"MILLBROOK 4.0 NNW, AL US"
0.7495,100,METERS,GHCND:US1ALEL0005,32.5422,-86.3783,2014-01-01,2011-01-01,"MILLBROOK 3.3 N, AL US"
0.9086,171.6,METERS,GHCND:US1ALEL0018,32.678426,-86.140235,2019-01-01,2009-01-01,"WETUMPKA 9.9 NNE, AL US"
0.9993,58.8,METERS,GHCND:US1ALEL0022,32.574063,-86.287733,2020-01-01,2010-01-01,"WETUMPKA 5.4 WNW, AL US"
0.3997,117,METERS,GHCND:US1ALEL0024,32.5149,-86.3851,2020-01-01,2011-01-01,"MILLBROOK 1.7 NW, AL US"
0.5829,52.1,METERS,GHCND:US1ALES0001,31.056577,-87.166847,2020-01-01,2009-01-01,"POLLARD 2.4 N, AL US"
1,252.7,METERS,GHCND:US1ALET0004,34.08794785,-85.98629761,2015-01-01,2014-01-01,"GADSDEN 5.6 NNE, AL US"
0.8881,157.9,METERS,GHCND:US1ALFY0001,33.83032,-87.81167,2016-01-01,2008-01-01,"WINFIELD 6.9 S, AL US"
0.9986,167.3,METERS,GHCND:US1ALFY0010,33.775567,-87.826694,2020-01-01,2019-01-01,"FAYETTE 5.6 N, AL US"
1,91.1,METERS,GHCND:US1ALHS0004,31.217215,-85.4172,2011-01-01,2009-01-01,"DOTHAN 1.5 SSW, AL US"
0.9991,96,METERS,GHCND:US1ALHS0006,31.226143,-85.614283,2016-01-01,2008-01-01,"CLAYHATCHEE 5.9 E, AL US"
0.6661,182.9,METERS,GHCND:US1ALJC0008,34.638775,-86.257709,2016-01-01,2008-01-01,"WOODVILLE 1.7 NE, AL US"
0.9992,463,METERS,GHCND:US1ALJC0012,34.734519,-86.210018,2020-01-01,2008-01-01,"WOODVILLE 8.0 NNE, AL US"
0.9991,228,METERS,GHCND:US1ALJF0011,33.451136,-86.767219,2016-01-01,2008-01-01,"VESTAVIA HILLS 1.7 NE, AL US"
0.2998,189.9,METERS,GHCND:US1ALJF0025,33.4885,-86.8923,2017-01-01,2008-01-01,"FAIRFIELD 1.8 NE, AL US"
1,314.9,METERS,GHCND:US1ALJF0036,33.684722,-86.597222,2011-01-01,2009-01-01,"TRUSSVILLE 3.4 N, AL US"
0.9084,165.2,METERS,GHCND:US1ALJF0037,33.379,-86.9775,2020-01-01,2010-01-01,"BESSEMER 1.0 WNW, AL US"
0.7771,270.1,METERS,GHCND:US1ALJF0047,33.396258,-86.839896,2020-01-01,2012-01-01,"HOOVER 1.9 NW, AL US"
0.7137,312.1,METERS,GHCND:US1ALJF0053,33.652331,-86.616748,2020-01-01,2014-01-01,"TRUSSVILLE 1.8 NW, AL US"
0.9992,222.8,METERS,GHCND:US1ALJF0057,33.51213837,-86.74279785,2020-01-01,2014-01-01,"MOUNTAIN BROOK 1.7 N, AL US"
0.9993,321.6,METERS,GHCND:US1ALJF0062,33.720453,-86.59301,2020-01-01,2017-01-01,"TRUSSVILLE 5.8 N, AL US"
0.9986,300.2,METERS,GHCND:US1ALJF0070,33.624,-86.6513,2020-01-01,2019-01-01,"CENTER POINT 2.1 SE, AL US"
0.9993,154.8,METERS,GHCND:US1ALLD0004,34.792123,-87.678868,2011-01-01,2008-01-01,"FLORENCE 2.6 SSW, AL US"
0.9993,224,METERS,GHCND:US1ALLD0009,34.912944,-87.882889,2020-01-01,2010-01-01,"CLOVERDALE 6.6 WSW, AL US"
0.5829,186.2,METERS,GHCND:US1ALLD0025,34.83505,-87.56975,2020-01-01,2009-01-01,"FLORENCE 5.4 E, AL US"
0.9995,182.6,METERS,GHCND:US1ALLD0034,34.887654,-87.702978,2014-01-01,2010-01-01,"FLORENCE 4.7 NNW, AL US"
0.4997,203,METERS,GHCND:US1ALLE0004,32.594869,-85.471087,2020-01-01,2009-01-01,"AUBURN 0.6 ENE, AL US"
0.7996,171.3,METERS,GHCND:US1ALLE0005,32.561652,-85.458071,2013-01-01,2009-01-01,"AUBURN 2.5 SSE, AL US"
0.8328,185.9,METERS,GHCND:US1ALLE0007,32.584422,-85.593032,2020-01-01,2009-01-01,"AUBURN 6.6 W, AL US"
0.9986,204.2,METERS,GHCND:US1ALLE0012,32.632721,-85.460526,2016-01-01,2015-01-01,"AUBURN 3.0 NNE, AL US"
0.9991,213.1,METERS,GHCND:US1ALLR0002,34.5382,-87.2378,2010-01-01,2008-01-01,"HILLSBORO 7.4 SSW, AL US"
0.6917,224,METERS,GHCND:US1ALLS0002,34.80442,-86.83035,2020-01-01,2008-01-01,"CAPSHAW 3.0 NW, AL US"
1,198.7,METERS,GHCND:US1ALLS0022,34.75768,-86.91587,2011-01-01,2010-01-01,"ATHENS 3.2 SE, AL US"
0.9991,210.3,METERS,GHCND:US1ALLS0023,34.786944,-86.953611,2020-01-01,2012-01-01,"ATHENS 1.5 SE, AL US"
0.9991,256.3,METERS,GHCND:US1ALLS0025,34.915725,-86.998976,2018-01-01,2016-01-01,"ELKMONT 1.6 SW, AL US"
0.9986,53.9,METERS,GHCND:US1ALMB0001,30.6079,-88.2585,2020-01-01,2019-01-01,"TILLMANS CORNER 4.3 WNW, AL US"
0.9993,30.5,METERS,GHCND:US1ALMB0004,30.69,-88.13,2020-01-01,2009-01-01,"MOBILE 2.6 WNW, AL US"
0.9993,71.9,METERS,GHCND:US1ALMB0024,30.737,-88.274,2019-01-01,2008-01-01,"WILMER 7.9 SE, AL US"
0.9995,43,METERS,GHCND:US1ALMB0032,30.511661,-88.321841,2013-01-01,2009-01-01,"GRAND BAY 3.1 NNE, AL US"
1,14.9,METERS,GHCND:US1ALMB0047,30.680815,-88.088807,2011-01-01,2009-01-01,"MOBILE 0.2 N, AL US"
0.3635,10.1,METERS,GHCND:US1ALMB0049,30.671,-88.108,2019-01-01,2009-01-01,"MOBILE 1.2 WSW, AL US"
0.9992,55.5,METERS,GHCND:US1ALMB0060,30.73635,-88.18182,2020-01-01,2014-01-01,"MOBILE 5.0 WNW, AL US"
0.5993,26.2,METERS,GHCND:US1ALMB0063,30.61167,-88.33424,2020-01-01,2016-01-01,"TILLMANS CORNER 8.7 WNW, AL US"
0.9993,120.7,METERS,GHCND:US1ALMC0003,32.44805,-85.817164,2020-01-01,2017-01-01,"TUSKEGEE 6.2 W, AL US"
0.3074,463,METERS,GHCND:US1ALMD0002,34.6651,-86.365438,2020-01-01,2008-01-01,"GURLEY 2.7 S, AL US"
0.7267,209.1,METERS,GHCND:US1ALMD0004,34.647,-86.553,2018-01-01,2008-01-01,"HUNTSVILLE 5.9 SE, AL US"
0.2725,246.9,METERS,GHCND:US1ALMD0006,34.935182,-86.583459,2020-01-01,2010-01-01,"HAZEL GREEN 1.2 NW, AL US"
0.9993,277.1,METERS,GHCND:US1ALMD0010,34.62023,-86.558954,2011-01-01,2008-01-01,"HUNTSVILLE 7.2 SSE, AL US"
0.9986,243.5,METERS,GHCND:US1ALMD0013,34.91343,-86.45135,2009-01-01,2008-01-01,"NEW MARKET 1.5 W, AL US"
0.6917,219.8,METERS,GHCND:US1ALMD0017,34.773067,-86.42655,2020-01-01,2008-01-01,"BROWNSBORO 1.9 NNE, AL US"
0.6994,242,METERS,GHCND:US1ALMD0025,34.73372,-86.55651,2017-01-01,2008-01-01,"HUNTSVILLE 4.4 ENE, AL US"
0.8565,207.9,METERS,GHCND:US1ALMD0026,34.7283,-86.7168,2014-01-01,2008-01-01,"MADISON 2.6 NE, AL US"
0.9991,182.9,METERS,GHCND:US1ALMD0029,34.612559,-86.539501,2010-01-01,2008-01-01,"HUNTSVILLE 8.2 SE, AL US"
0.7771,207.9,METERS,GHCND:US1ALMD0030,34.613611,-86.555457,2016-01-01,2008-01-01,"HUNTSVILLE 7.6 SSE, AL US"
0.4282,239.9,METERS,GHCND:US1ALMD0032,34.788837,-86.772823,2014-01-01,2008-01-01,"HARVEST 4.8 SSW, AL US"
0.9223,429.2,METERS,GHCND:US1ALMD0033,34.670574,-86.515034,2020-01-01,2008-01-01,"HAMPTON COVE 2.1 WNW, AL US"
0.9993,187.1,METERS,GHCND:US1ALMD0040,34.667,-86.485,2015-01-01,2008-01-01,"HAMPTON COVE 0.5 NNW, AL US"
0.9993,193.9,METERS,GHCND:US1ALMD0042,34.66892,-86.49463,2019-01-01,2008-01-01,"HAMPTON COVE 1.0 NW, AL US"
0.9991,196.9,METERS,GHCND:US1ALMD0043,34.561814,-86.396613,2010-01-01,2008-01-01,"NEW HOPE 1.9 NE, AL US"
0.9986,235.9,METERS,GHCND:US1ALMD0045,34.80887,-86.78458,2009-01-01,2008-01-01,"HARVEST 3.8 SSW, AL US"
0.9992,234.1,METERS,GHCND:US1ALMD0046,34.792099,-86.77632,2014-01-01,2008-01-01,"HARVEST 4.6 SSW, AL US"
0.8326,187.1,METERS,GHCND:US1ALMD0048,34.639224,-86.536861,2013-01-01,2008-01-01,"HUNTSVILLE 7.0 SE, AL US"
0.3074,235.9,METERS,GHCND:US1ALMD0050,34.727,-86.7453,2020-01-01,2008-01-01,"MADISON 1.7 N, AL US"
0.8568,221,METERS,GHCND:US1ALMD0054,34.65199,-86.55827,2015-01-01,2009-01-01,"HUNTSVILLE 5.5 SE, AL US"
0.9993,221,METERS,GHCND:US1ALMD0059,34.7856,-86.7114,2020-01-01,2009-01-01,"HARVEST 5.3 SSE, AL US"
0.8744,237.7,METERS,GHCND:US1ALMD0071,34.7856636,-86.7374662,2020-01-01,2013-01-01,"MADISON 5.8 N, AL US"
0.9986,223.1,METERS,GHCND:US1ALMD0090,34.7329833,-86.5712667,2020-01-01,2019-01-01,"HUNTSVILLE 3.7 ENE, AL US"
0.9986,253.9,METERS,GHCND:US1ALMG0003,34.513053,-86.922659,2013-01-01,2012-01-01,"PRICEVILLE 2.2 WSW, AL US"
0.9992,253,METERS,GHCND:US1ALMG0009,34.363774,-86.821729,2020-01-01,2008-01-01,"FALKVILLE 5.1 E, AL US"
0.9992,394.1,METERS,GHCND:US1ALMG0012,34.4907,-86.6328,2020-01-01,2008-01-01,"LACEY S SPRING 3.4 SSW, AL US"
0.8328,191.1,METERS,GHCND:US1ALMG0014,34.4552,-86.7743833,2020-01-01,2009-01-01,"SOMERVILLE 2.0 SE, AL US"
0.7495,249.6,METERS,GHCND:US1ALMG0017,34.5148,-86.9146,2020-01-01,2009-01-01,"PRICEVILLE 1.8 WSW, AL US"
0.9223,171,METERS,GHCND:US1ALMR0001,33.979306,-87.921354,2020-01-01,2008-01-01,"GUIN 1.1 NW, AL US"
0.4995,319.1,METERS,GHCND:US1ALMS0004,34.289,-86.127,2013-01-01,2008-01-01,"ALBERTVILLE 5.0 ENE, AL US"
0.6149,241.1,METERS,GHCND:US1ALMS0006,34.330621,-86.292466,2020-01-01,2008-01-01,"GUNTERSVILLE 2.2 SW, AL US"
0.6994,296.9,METERS,GHCND:US1ALMS0011,34.364817,-86.236096,2020-01-01,2011-01-01,"GUNTERSVILLE 2.0 ENE, AL US"
0.6994,313,METERS,GHCND:US1ALMS0013,34.278524,-86.291163,2017-01-01,2008-01-01,"ALBERTVILLE 4.8 WNW, AL US"
0.6661,205.1,METERS,GHCND:US1ALMS0019,34.24937,-86.39305,2020-01-01,2015-01-01,"DOUGLAS 6.8 NW, AL US"
0.7991,286.5,METERS,GHCND:US1ALMS0020,34.42225,-86.5691,2020-01-01,2016-01-01,"UNION GROVE 7.2 WNW, AL US"
0.4997,337.4,METERS,GHCND:US1ALMS0021,34.236773,-86.170806,2016-01-01,2009-01-01,"ALBERTVILLE 2.8 SE, AL US"
0.9084,324,METERS,GHCND:US1ALMS0022,34.342446,-86.213142,2020-01-01,2010-01-01,"ALBERTVILLE 5.5 N, AL US"
0.8881,185,METERS,GHCND:US1ALMS0029,34.35623,-86.35249,2020-01-01,2012-01-01,"GUNTERSVILLE 4.7 W, AL US"
0.9986,317,METERS,GHCND:US1ALMS0031,34.259791,-86.230992,2020-01-01,2019-01-01,"ALBERTVILLE 1.2 W, AL US"
0.9993,158.8,METERS,GHCND:US1ALMY0006,32.032274,-86.205587,2020-01-01,2009-01-01,"RAMER 1.5 SE, AL US"
0.8744,94.5,METERS,GHCND:US1ALMY0007,32.37715556,-86.25753889,2016-01-01,2009-01-01,"MONTGOMERY 2.2 NE, AL US"
0.6661,89,METERS,GHCND:US1ALMY0011,32.16781,-86.293265,2020-01-01,2018-01-01,"MONTGOMERY 12.9 S, AL US"
0.9986,63.4,METERS,GHCND:US1ALMY0014,32.37835,-86.13699,2020-01-01,2019-01-01,"MONTGOMERY 8.8 E, AL US"
0.9993,253,METERS,GHCND:US1ALRN0002,33.203389,-85.348472,2020-01-01,2010-01-01,"ROANOKE 4.2 NNE, AL US"
1,257.9,METERS,GHCND:US1ALRN0004,33.178579,-85.304231,2019-01-01,2018-01-01,"ROANOKE 4.4 ENE, AL US"
0.4998,124.1,METERS,GHCND:US1ALRS0001,32.494827,-85.029497,2019-01-01,2014-01-01,"PHENIX CITY 2.2 NNW, AL US"
0.9986,128.9,METERS,GHCND:US1ALRS0002,32.503104,-85.04043,2009-01-01,2008-01-01,"PHENIX CITY 3.0 NNW, AL US"
0.7996,121,METERS,GHCND:US1ALRS0003,32.291807,-85.189303,2018-01-01,2009-01-01,"SEALE 1.4 W, AL US"
0.9986,147.8,METERS,GHCND:US1ALSC0001,33.5105,-86.252333,2009-01-01,2008-01-01,"PELL CITY 3.6 SSE, AL US"
0.9993,142,METERS,GHCND:US1ALSC0003,33.488501,-86.325154,2011-01-01,2008-01-01,"PELL CITY 5.8 SSW, AL US"
0.9986,243.8,METERS,GHCND:US1ALSC0004,33.70815,-86.32552,2009-01-01,2008-01-01,"ODENVILLE 4.5 ENE, AL US"
0.6661,212.8,METERS,GHCND:US1ALSC0006,33.583378,-86.463282,2020-01-01,2015-01-01,"MOODY 2.0 ESE, AL US"
0.9989,180.4,METERS,GHCND:US1ALSC0011,33.808339,-86.299628,2020-01-01,2016-01-01,"ASHVILLE 2.7 SW, AL US"
0.9993,199,METERS,GHCND:US1ALSH0004,33.389,-86.7105,2015-01-01,2008-01-01,"MEADOWBROOK 1.2 SW, AL US"
0.9991,143.9,METERS,GHCND:US1ALSH0012,33.2666,-86.821,2010-01-01,2008-01-01,"ALABASTER 2.8 N, AL US"
0.8565,159.1,METERS,GHCND:US1ALSH0013,33.218458,-86.858674,2014-01-01,2008-01-01,"ALABASTER 2.0 WSW, AL US"
0.3843,250.9,METERS,GHCND:US1ALSH0016,33.396296,-86.635297,2020-01-01,2008-01-01,"MEADOWBROOK 3.6 E, AL US"
0.6359,162.2,METERS,GHCND:US1ALSH0021,33.4051,-86.7359,2018-01-01,2008-01-01,"INVERNESS 0.8 W, AL US"
0.9991,183.5,METERS,GHCND:US1ALSH0022,33.2462,-86.7903,2020-01-01,2018-01-01,"ALABASTER 2.4 NE, AL US"
0.3843,188.1,METERS,GHCND:US1ALSH0024,33.142866,-86.771664,2020-01-01,2008-01-01,"CALERA 3.1 NNW, AL US"
1,172.8,METERS,GHCND:US1ALSH0041,33.179,-86.782,2011-01-01,2010-01-01,"CALERA 5.6 NNW, AL US"
0.9991,291.7,METERS,GHCND:US1ALSH0048,33.4198,-86.6378,2020-01-01,2012-01-01,"LAKE PURDY 2.6 ESE, AL US"
0.9991,166.4,METERS,GHCND:US1ALSH0052,33.195364,-86.834405,2020-01-01,2015-01-01,"ALABASTER 2.2 SSW, AL US"
1,137.5,METERS,GHCND:US1ALSH0057,33.273516,-86.813355,2015-01-01,2014-01-01,"PELHAM 2.3 SSW, AL US"
1,157,METERS,GHCND:US1ALSH0061,33.26490784,-86.49478912,2018-01-01,2017-01-01,"WILSONVILLE 2.2 NNW, AL US"
0.9986,164,METERS,GHCND:US1ALSH0062,33.390695,-86.741399,2020-01-01,2019-01-01,"INVERNESS 1.4 SW, AL US"
0.8744,139,METERS,GHCND:US1ALTG0002,33.444141,-86.310972,2015-01-01,2008-01-01,"VINCENT 7.0 NE, AL US"
0.7991,187.5,METERS,GHCND:US1ALTG0003,33.485975,-85.99382,2012-01-01,2008-01-01,"MUNFORD 5.0 SSE, AL US"
0.7686,150,METERS,GHCND:US1ALTG0006,33.22433,-86.31953,2020-01-01,2008-01-01,"BON AIR 2.8 SSE, AL US"
0.6661,201.5,METERS,GHCND:US1ALTG0007,33.409388,-86.092149,2020-01-01,2018-01-01,"TALLADEGA 1.6 SSE, AL US"
0.9993,189,METERS,GHCND:US1ALTG0010,33.5379,-85.9708,2014-01-01,2011-01-01,"MUNFORD 1.3 WNW, AL US"
0.7996,153,METERS,GHCND:US1ALTP0005,32.847583,-85.856101,2014-01-01,2010-01-01,"JACKSONS GAP 3.4 SW, AL US"
0.6149,199.3,METERS,GHCND:US1ALTP0007,32.9884,-85.9492,2020-01-01,2008-01-01,"ALEXANDER CITY 3.1 NNE, AL US"
0.9993,150,METERS,GHCND:US1ALTP0011,32.8875,-85.9338,2011-01-01,2008-01-01,"ALEXANDER CITY 2.7 S, AL US"
1,149,METERS,GHCND:US1ALTP0013,32.754335,-85.817579,2011-01-01,2009-01-01,"DADEVILLE 6.2 SSW, AL US"
0.9995,197.2,METERS,GHCND:US1ALTP0014,32.827065,-85.96077,2014-01-01,2010-01-01,"ALEXANDER CITY 7.1 SSW, AL US"
0.9992,68,METERS,GHCND:US1ALTS0003,33.0786,-87.4009,2020-01-01,2008-01-01,"HOLT 11.4 SSE, AL US"
0.4996,128.9,METERS,GHCND:US1ALTS0004,33.1853,-87.4979,2020-01-01,2011-01-01,"TUSCALOOSA 4.4 SE, AL US"
0.9992,58.2,METERS,GHCND:US1ALTS0017,33.23701,-87.68692,2020-01-01,2011-01-01,"COKER 0.6 S, AL US"
0.9986,159.1,METERS,GHCND:US1ALWK0001,33.897717,-87.232833,2009-01-01,2008-01-01,"JASPER 3.8 NE, AL US"
0.9084,248.1,METERS,GHCND:US1ALWN0001,34.19387,-87.38946,2020-01-01,2010-01-01,"DOUBLE SPRINGS 3.2 NNE, AL US"
0.9989,39,METERS,GHCND:US1ALWS0001,31.50952,-87.96003,2016-01-01,2012-01-01,"JACKSON 4.3 WSW, AL US"
0.9992,53.9,METERS,GHCND:US1ALWX0001,31.965167,-87.638717,2020-01-01,2008-01-01,"PINE HILL 3.6 WSW, AL US"
0.8881,79.9,METERS,GHCND:US1ALWX0002,32.0166,-87.2904,2016-01-01,2008-01-01,"CAMDEN 1.0 NNE, AL US"
0.2855,262.1,METERS,GHCND:US1CHARM043,34.628611,-86.556111,2014-01-01,2008-01-01,"HAMPTON COVE 4.8 WSW, AL US"
0.555,210.3,METERS,GHCND:US1CHARM053,34.644444,-86.505556,2016-01-01,2008-01-01,"HAMPTON COVE 1.8 SW, AL US"
0.571,220.1,METERS,GHCND:US1CHARM175,34.780556,-86.864444,2014-01-01,2008-01-01,"ATHENS 5.4 E, AL US"
0.3996,235,METERS,GHCND:US1CHARM176,34.798056,-86.704722,2012-01-01,2008-01-01,"HARVEST 4.7 SSE, AL US"
0.9993,184.1,METERS,GHCND:US1CHARM178,34.6475,-86.481389,2011-01-01,2008-01-01,"HAMPTON COVE 0.9 S, AL US"
0.6661,220.7,METERS,GHCND:US1CHARM197,34.785556,-86.711389,2014-01-01,2012-01-01,"CAPSHAW 4.7 E, AL US"
0.9986,192.6,METERS,GHCND:US1CHARM213,34.849,-87.449,2012-01-01,2011-01-01,"KILLEN 4.6 E, AL US"
0.738,139,METERS,GHCND:USC00010008,31.5702,-85.2482,2013-01-01,1949-01-01,"ABBEVILLE, AL US"
0.3623,249.3,METERS,GHCND:USC00010063,34.2553,-87.1814,2020-01-01,1941-01-01,"ADDISON, AL US"
0.9086,302.1,METERS,GHCND:USC00010071,34.41667,-87.31667,1959-01-01,1949-01-01,"ADDISON CENTRAL TOWER, AL US"
0.8394,34.1,METERS,GHCND:USC00010125,31.13333,-85.06667,1929-01-01,1905-01-01,"ALAGA, AL US"
0.7803,53.3,METERS,GHCND:USC00010140,32.2322,-87.4104,2014-01-01,1942-01-01,"ALBERTA, AL US"
0.6246,348.1,METERS,GHCND:USC00010148,34.23333,-86.16667,1977-01-01,1930-01-01,"ALBERTVILLE, AL US"
0.823,195.1,METERS,GHCND:USC00010160,32.9452,-85.948,2020-01-01,1970-01-01,"ALEXANDER CITY, AL US"
0.8513,200.9,METERS,GHCND:USC00010163,32.98333,-85.86667,1969-01-01,1943-01-01,"ALEXANDER CITY 6 NE, AL US"
0.5425,59.4,METERS,GHCND:USC00010178,33.1272,-88.155,2020-01-01,1951-01-01,"ALICEVILLE, AL US"
0.7995,50.3,METERS,GHCND:USC00010184,33.21,-88.2878,2020-01-01,1981-01-01,"BEVILL LOCK AND DAM, AL US"
0.8475,76.2,METERS,GHCND:USC00010252,31.3071,-86.5226,2016-01-01,1938-01-01,"ANDALUSIA 3 W, AL US"
0.7772,231.6,METERS,GHCND:USC00010260,34.96285,-87.37195,2021-01-01,2004-01-01,"LEXINGTON, AL US"
0.9993,220.1,METERS,GHCND:USC00010267,33.66667,-85.83333,1949-01-01,1930-01-01,"ANNISTON, AL US"
0.9041,227.1,METERS,GHCND:USC00010338,34.06667,-87.23333,1981-01-01,1940-01-01,"ARLEY 1 S, AL US"
0.7072,311.5,METERS,GHCND:USC00010369,33.2941,-85.7788,2013-01-01,1949-01-01,"ASHLAND, AL US"
0.3331,180.1,METERS,GHCND:USC00010377,33.85,-86.33333,1970-01-01,1896-01-01,"ASHVILLE, AL US"
0.5819,210,METERS,GHCND:USC00010390,34.7752,-86.9508,2020-01-01,1942-01-01,"ATHENS, AL US"
0.5551,219.5,METERS,GHCND:USC00010395,34.8,-86.98333,1991-01-01,1956-01-01,"ATHENS 2, AL US"
0.6416,91.4,METERS,GHCND:USC00010402,31.182,-87.439,2021-01-01,1941-01-01,"ATMORE, AL US"
0.9994,67.1,METERS,GHCND:USC00010407,31.01667,-87.51667,1982-01-01,1965-01-01,"ATMORE, AL US"
0.9369,223.1,METERS,GHCND:USC00010422,32.6,-85.5,1970-01-01,1907-01-01,"AUBURN, AL US"
0.8394,166.1,METERS,GHCND:USC00010425,32.5992,-85.4653,2020-01-01,1996-01-01,"AUBURN NUMBER 2, AL US"
1,198.7,METERS,GHCND:USC00010427,32.6,-85.5,1950-01-01,1949-01-01,"AUBURN AGRONOMY FARM, AL US"
0.8494,198.7,METERS,GHCND:USC00010430,32.6,-85.5,1995-01-01,1976-01-01,"AUBURN AGRONOMY FARM, AL US"
0.7995,61,METERS,GHCND:USC00010440,32.47056,-86.68,2000-01-01,1941-01-01,"AUTAUGAVILLE 3 N, AL US"
0.9359,85.3,METERS,GHCND:USC00010505,33.4527,-87.3572,2020-01-01,1958-01-01,"BANKHEAD LOCK AND DAM, AL US"
0.7495,139.9,METERS,GHCND:USC00010546,34.71667,-87.86667,1952-01-01,1949-01-01,"BARTON, AL US"
0.7328,82.6,METERS,GHCND:USC00010583,30.884,-87.7852,2018-01-01,1914-01-01,"BAY MINETTE, AL US"
0.2805,54.3,METERS,GHCND:USC00010616,31.72222,-87.21194,1999-01-01,1943-01-01,"BEATRICE, AL US"
0.9608,246.9,METERS,GHCND:USC00010631,34.46667,-87.86667,1961-01-01,1936-01-01,"BELGREEN, AL US"
0.9289,183.8,METERS,GHCND:USC00010655,34.6891,-86.8819,2020-01-01,1950-01-01,"BELLE MINA 2 N, AL US"
0.2024,150.3,METERS,GHCND:USC00010748,33.69709,-87.64875,2020-01-01,1942-01-01,"BERRY 3 NW, AL US"
0.8882,164.9,METERS,GHCND:USC00010757,33.36667,-87.01667,1972-01-01,1955-01-01,"BESSEMER, AL US"
0.9539,135.6,METERS,GHCND:USC00010764,33.3952,-87.0077,2020-01-01,1977-01-01,"BESSEMER 3 WSW, AL US"
0.7996,188.1,METERS,GHCND:USC00010768,32.94417,-86.83306,2007-01-01,2003-01-01,"BESSIE, AL US"
0.9993,267.9,METERS,GHCND:USC00010776,34.98333,-86.63333,1961-01-01,1958-01-01,"BETHLEHEM, AL US"
0.5484,134.1,METERS,GHCND:USC00010823,32.6624,-86.7244,2020-01-01,1939-01-01,"BILLINGSLEY, AL US"
0.9986,499.9,METERS,GHCND:USC00010826,34.76667,-86.28333,1961-01-01,1960-01-01,"BINGHAM MOUNTAIN, AL US"
0.3446,214,METERS,GHCND:USC00010836,33.53333,-86.83333,1953-01-01,1896-01-01,"BIRMINGHAM, AL US"
0.9194,143,METERS,GHCND:USC00010854,34.65,-88.11667,1961-01-01,1937-01-01,"BISHOP, AL US"
1,,,GHCND:USC00010952,34,-85.45,1943-01-01,1942-01-01,"BLUFFTON, AL US"
0.7068,326.1,METERS,GHCND:USC00010957,34.2008,-86.1633,2020-01-01,1939-01-01,"BOAZ, AL US"
0.884,83.5,METERS,GHCND:USC00011069,31.58333,-86.26667,1982-01-01,1931-01-01,"BRANTLEY, AL US"
0.7949,48.8,METERS,GHCND:USC00011080,31.1413,-87.0486,2020-01-01,1977-01-01,"BREWTON 3 ENE, AL US"
0.8759,25.9,METERS,GHCND:USC00011084,31.0583,-87.0549,2014-01-01,1926-01-01,"BREWTON 3 SSE, AL US"
0.6447,202.4,METERS,GHCND:USC00011099,34.9786,-85.8008,2019-01-01,1896-01-01,"BRIDGEPORT 5 NW, AL US"
0.9986,112.8,METERS,GHCND:USC00011100,33.03777,-87.00234,2020-01-01,2019-01-01,"BRIERFIELD, AL US"
0.8255,153.3,METERS,GHCND:USC00011143,33.262,-87.3103,2005-01-01,1960-01-01,"BROOKWOOD, AL US"
0.7669,138.7,METERS,GHCND:USC00011178,31.7055,-85.8369,2016-01-01,1931-01-01,"BRUNDIDGE, AL US"
0.6661,61,METERS,GHCND:USC00011189,32.09111,-88.23222,2005-01-01,2000-01-01,"BUTLER, AL US"
0.6406,140.5,METERS,GHCND:USC00011225,33.4517,-86.7158,2020-01-01,1982-01-01,"CAHABA PUMP HOUSE, AL US"
0.6718,161.5,METERS,GHCND:USC00011288,33.0944,-86.7455,2020-01-01,1902-01-01,"CALERA, AL US"
0.9161,71.6,METERS,GHCND:USC00011300,32.02889,-87.31667,1961-01-01,1950-01-01,"CAMDEN 3 NW, AL US"
0.9244,71.6,METERS,GHCND:USC00011301,32.02889,-87.31667,2001-01-01,1962-01-01,"CAMDEN 3 NW, AL US"
0.5096,207.3,METERS,GHCND:USC00011324,32.8236,-85.6561,2000-01-01,1901-01-01,"CAMP HILL 2 NW, AL US"
0.6807,136.6,METERS,GHCND:USC00011377,33.8463,-87.4871,2007-01-01,1939-01-01,"CARBON HILL 4 SE, AL US"
0.3156,182.9,METERS,GHCND:USC00011490,34.15,-85.6846,2020-01-01,2002-01-01,"CENTRE, AL US"
0.9608,238,METERS,GHCND:USC00011492,34.38333,-86.63333,1961-01-01,1936-01-01,"CENTER GROVE, AL US"
0.7925,188.1,METERS,GHCND:USC00011512,34.11667,-85.73333,1984-01-01,1956-01-01,"CENTRE 4 SW, AL US"
0.824,67.1,METERS,GHCND:USC00011520,32.95,-87.13333,1973-01-01,1917-01-01,"CENTREVILLE, AL US"
0.9993,86.9,METERS,GHCND:USC00011566,31.4715,-88.2504,2019-01-01,1949-01-01,"CHATOM, AL US"
0.9994,146,METERS,GHCND:USC00011615,33.28333,-86.36667,1966-01-01,1937-01-01,"CHILDERSBURG, AL US"
0.8744,127.4,METERS,GHCND:USC00011620,33.285,-86.3431,2020-01-01,1957-01-01,"CHILDERSBURG WATER PLANT, AL US"
0.3198,100.9,METERS,GHCND:USC00011685,31.08333,-88.23333,1966-01-01,1892-01-01,"CITRONELLE, AL US"
0.8827,15.2,METERS,GHCND:USC00011690,31.61469,-87.5003,2012-01-01,1953-01-01,"CLAIBORNE LOCK AND DAM, AL US"
0.8075,179.8,METERS,GHCND:USC00011694,32.816,-86.60417,2020-01-01,1896-01-01,"CLANTON, AL US"
0.7307,173.4,METERS,GHCND:USC00011725,31.8709,-85.4501,2020-01-01,1928-01-01,"CLAYTON, AL US"
0.3791,46,METERS,GHCND:USC00011799,33.08333,-88.23333,1939-01-01,1911-01-01,"COCHRANE 2 E, AL US"
0.7791,3.7,METERS,GHCND:USC00011803,30.3875,-88.227,2014-01-01,1956-01-01,"CODEN, AL US"
0.8661,76.2,METERS,GHCND:USC00011807,31.18333,-85.93333,1983-01-01,1924-01-01,"COFFEE SPRINGS, AL US"
0.9056,14,METERS,GHCND:USC00011810,31.75615,-88.12876,2014-01-01,1983-01-01,"COFFEEVILLE LOCK AND DAM, AL US"
0.8993,143,METERS,GHCND:USC00011819,34.75,-87.85,1961-01-01,1952-01-01,"COLBERT STEAM PLANT, AL US"
0.9467,228.9,METERS,GHCND:USC00011849,34.25,-85.88333,1976-01-01,1939-01-01,"COLLINSVILLE, AL US"
0.758,27.1,METERS,GHCND:USC00011865,31.28333,-85.11667,1964-01-01,1936-01-01,"COLUMBIA, AL US"
0.6927,97.5,METERS,GHCND:USC00011940,33.75,-87.15,1990-01-01,1903-01-01,"CORDOVA, AL US"
0.7302,66.1,METERS,GHCND:USC00011974,32.15,-85.06667,1985-01-01,1960-01-01,"COTTONTON, AL US"
0.9018,67.1,METERS,GHCND:USC00012079,32.43333,-88.38333,1981-01-01,1941-01-01,"CUBA, AL US"
0.7494,247.2,METERS,GHCND:USC00012096,34.1924,-86.7972,2018-01-01,1995-01-01,"CULLMAN N.A.H.S., AL US"
0.8456,198.1,METERS,GHCND:USC00012119,32.81667,-85.75,1982-01-01,1905-01-01,"DADEVILLE, AL US"
0.5621,223.4,METERS,GHCND:USC00012124,32.8622,-85.7358,2020-01-01,1989-01-01,"DADEVILLE 2, AL US"
0.5928,64,METERS,GHCND:USC00012141,33.06667,-88.28333,1964-01-01,1906-01-01,"DANCY, AL US"
0.9994,182.9,METERS,GHCND:USC00012149,34.41667,-87.08333,1961-01-01,1949-01-01,"DANVILLE, AL US"
0.7328,2.4,METERS,GHCND:USC00012172,30.2505,-88.0775,2020-01-01,1976-01-01,"DAUPHIN ISLAND NUMBER 2, AL US"
0.6338,70.1,METERS,GHCND:USC00012188,32.36667,-87.65,1981-01-01,1941-01-01,"DAYTON, AL US"
0.762,177.1,METERS,GHCND:USC00012207,34.58333,-86.96667,1969-01-01,1890-01-01,"DECATUR, AL US"
0.4997,167.6,METERS,GHCND:USC00012209,34.57556,-86.93389,2018-01-01,1999-01-01,"DECATUR 4 SE, AL US"
0.9994,174,METERS,GHCND:USC00012216,34.61667,-86.98333,1961-01-01,1949-01-01,"DECATUR 4, AL US"
0.9994,180.1,METERS,GHCND:USC00012221,34.6,-86.96667,1961-01-01,1949-01-01,"DECATUR SUBSTATION, AL US"
0.9493,313.9,METERS,GHCND:USC00012235,33.43333,-85.7,1976-01-01,1957-01-01,"DELTA, AL US"
0.7662,31.1,METERS,GHCND:USC00012240,32.51667,-87.85,1951-01-01,1892-01-01,"DEMOPOLIS LOCK 4, AL US"
0.8376,30.5,METERS,GHCND:USC00012245,32.5193,-87.88,2019-01-01,1952-01-01,"DEMOPOLIS LOCK AND DAM, AL US"
0.5996,143.3,METERS,GHCND:USC00012350,33.74778,-87.05861,2020-01-01,2006-01-01,"DORA, AL US"
0.6466,83.8,METERS,GHCND:USC00012377,31.1941,-85.3708,2021-01-01,2005-01-01,"DOTHAN, AL US"
0.9518,246.9,METERS,GHCND:USC00012386,34.15,-87.41667,1978-01-01,1958-01-01,"DOUBLE SPRINGS, AL US"
0.5417,59.4,METERS,GHCND:USC00012577,31.4238,-86.0667,2003-01-01,1897-01-01,"ELBA, AL US"
0.9991,235,METERS,GHCND:USC00012600,34.88333,-86.91667,1961-01-01,1959-01-01,"ELKMONT, AL US"
0.8469,76.8,METERS,GHCND:USC00012632,33.25694,-87.79722,1999-01-01,1941-01-01,"ELROD, AL US"
0.7993,116.1,METERS,GHCND:USC00012670,31.31667,-85.85,1965-01-01,1956-01-01,"ENTERPRISE, AL US"
0.6976,102.7,METERS,GHCND:USC00012675,31.2975,-85.8996,2019-01-01,1967-01-01,"ENTERPRISE 2 W, AL US"
0.869,61.6,METERS,GHCND:USC00012727,31.86667,-85.15,1963-01-01,1895-01-01,"EUFAULA, AL US"
0.7495,91.4,METERS,GHCND:USC00012730,32.0112,-85.0901,2015-01-01,1968-01-01,"EUFAULA WILDLIFE REF, AL US"
0.8229,33.5,METERS,GHCND:USC00012742,32.77472,-87.83056,1956-01-01,1940-01-01,"WARRIOR LOCK AND DAM, AL US"
0.4997,88.4,METERS,GHCND:USC00012758,31.4449,-86.9532,2017-01-01,1896-01-01,"EVERGREEN, AL US"
0.8608,7,METERS,GHCND:USC00012813,30.5468,-87.8807,2020-01-01,1920-01-01,"FAIRHOPE 2 NE, AL US"
0.7268,70.1,METERS,GHCND:USC00012832,31.1,-86.55,1963-01-01,1942-01-01,"FALCO OPEN POND TOWER, AL US"
0.8698,190.5,METERS,GHCND:USC00012840,34.36667,-86.88333,1992-01-01,1939-01-01,"FALKVILLE, AL US"
0.9993,198.1,METERS,GHCND:USC00012848,34.06667,-87.33333,1964-01-01,1953-01-01,"FALLS CITY BLK POND, AL US"
0.9994,174,METERS,GHCND:USC00012867,34.56667,-86.56667,1961-01-01,1949-01-01,"FARLEY, AL US"
0.622,108.8,METERS,GHCND:USC00012883,33.7091,-87.8152,2020-01-01,1923-01-01,"FAYETTE, AL US"
0.9538,427,METERS,GHCND:USC00012945,34.76667,-85.68333,1960-01-01,1939-01-01,"FLAT ROCK, AL US"
0.6231,176.2,METERS,GHCND:USC00012971,34.8,-87.68333,1977-01-01,1893-01-01,"FLORENCE, AL US"
0.358,136.9,METERS,GHCND:USC00012976,34.78333,-87.66667,1958-01-01,1892-01-01,"FLORENCE AT LOCK, AL US"
0.3887,153,METERS,GHCND:USC00013024,31.98333,-86.58333,1967-01-01,1896-01-01,"FORT DEPOSIT, AL US"
0.8143,3,METERS,GHCND:USC00013035,30.225833,-88.025833,1975-01-01,1949-01-01,"FORT MORGAN, AL US"
0.6855,279.5,METERS,GHCND:USC00013043,34.4406,-85.7236,2021-01-01,1936-01-01,"FORT PAYNE, AL US"
0.7037,83.8,METERS,GHCND:USC00013105,31.38944,-87.42028,2000-01-01,1930-01-01,"FRISCO CITY 3 SSW, AL US"
0.6618,174,METERS,GHCND:USC00013151,34.01667,-86,1967-01-01,1894-01-01,"GADSDEN, AL US"
0.701,172.2,METERS,GHCND:USC00013154,34.0219,-85.9878,2020-01-01,1954-01-01,"GADSDEN, AL US"
0.8466,38.1,METERS,GHCND:USC00013160,32.8347,-88.1341,2020-01-01,1949-01-01,"GAINESVILLE LOCK, AL US"
0.6952,153,METERS,GHCND:USC00013200,34.01667,-86.75,1983-01-01,1938-01-01,"GARDEN CITY, AL US"
0.9986,198.1,METERS,GHCND:USC00013215,34.73333,-86.3,1961-01-01,1960-01-01,"GARTH, AL US"
0.9327,44.2,METERS,GHCND:USC00013251,31.03833,-85.87083,2021-01-01,1977-01-01,"GENEVA NUMBER 2, AL US"
0.7821,32.3,METERS,GHCND:USC00013255,31.03861,-85.87,1975-01-01,1930-01-01,"GENEVA, AL US"
0.8255,91.4,METERS,GHCND:USC00013271,31.67722,-86.80611,2002-01-01,1957-01-01,"GEORGIANA, AL US"
0.9041,39.9,METERS,GHCND:USC00013308,31.88333,-88.33333,1977-01-01,1957-01-01,"GILBERTOWN, AL US"
0.7236,307.8,METERS,GHCND:USC00013399,33.06667,-86.05,1953-01-01,1896-01-01,"GOODWATER, AL US"
0.9132,106.7,METERS,GHCND:USC00013430,33.66667,-87.18333,1994-01-01,1937-01-01,"GORGAS, AL US"
0.9992,85,METERS,GHCND:USC00013496,31.18333,-86.28333,1964-01-01,1955-01-01,"GREEN BAY, AL US"
0.7495,75.9,METERS,GHCND:USC00013511,32.69212,-87.57603,2020-01-01,1893-01-01,"GREENSBORO, AL US"
0.8734,104.2,METERS,GHCND:USC00013519,31.7901,-86.6087,2018-01-01,1900-01-01,"GREENVILLE, AL US"
0.8566,3,METERS,GHCND:USC00013559,30.28333,-87.68333,1971-01-01,1951-01-01,"GULF SHORES POST OFFICE, AL US"
0.7089,176.2,METERS,GHCND:USC00013573,34.3344,-86.3297,2020-01-01,1904-01-01,"GUNTERSVILLE, AL US"
0.7687,181.4,METERS,GHCND:USC00013575,34.3347,-86.3294,2021-01-01,1996-01-01,"GUNTERSVILLE NUMBER 2, AL US"
0.823,182.9,METERS,GHCND:USC00013578,34.35,-86.3,1965-01-01,1949-01-01,"GUNTERSVILLE, AL US"
0.9994,185.9,METERS,GHCND:USC00013583,34.43333,-86.4,1961-01-01,1949-01-01,"GUNTERSVILLE DAM, AL US"
0.7971,280.4,METERS,GHCND:USC00013620,34.2314,-87.6352,2020-01-01,1937-01-01,"HALEYVILLE, AL US"
0.9124,167.9,METERS,GHCND:USC00013644,34.13333,-87.98333,1961-01-01,1939-01-01,"HAMILTON, AL US"
0.9485,132.6,METERS,GHCND:USC00013645,34.0966,-87.9913,2020-01-01,1962-01-01,"HAMILTON 3 S, AL US"
0.805,179.8,METERS,GHCND:USC00013655,34.0678,-86.791,2020-01-01,1985-01-01,"HANCEVILLE, AL US"
0.529,182.9,METERS,GHCND:USC00013697,32.8,-87.18333,1960-01-01,1944-01-01,"HARRISBURG CAHABA TOWER, AL US"
0.7205,52.1,METERS,GHCND:USC00013748,32.18333,-86.58333,1980-01-01,1938-01-01,"HAYNEVILLE, AL US"
0.8431,112.8,METERS,GHCND:USC00013761,31.3625,-85.3397,2013-01-01,1950-01-01,"HEADLAND, AL US"
0.7841,304.8,METERS,GHCND:USC00013775,33.64353,-85.60918,2020-01-01,1956-01-01,"HEFLIN, AL US"
0.809,146.3,METERS,GHCND:USC00013781,33.2725,-86.83361,2021-01-01,2001-01-01,"HELENA, AL US"
0.8818,126.8,METERS,GHCND:USC00013783,33.28333,-86.85,1950-01-01,1917-01-01,"HELENA, AL US"
0.6246,132,METERS,GHCND:USC00013816,31.8814,-86.2503,2012-01-01,1893-01-01,"HIGHLAND HOME, AL US"
0.8881,169.2,METERS,GHCND:USC00013818,31.9477,-86.3131,2020-01-01,2012-01-01,"HIGHLAND HOME NUMBER 2, AL US"
0.7966,361.2,METERS,GHCND:USC00013842,33.52111,-85.38056,2010-01-01,1942-01-01,"HIGHTOWER, AL US"
0.7138,256,METERS,GHCND:USC00013899,34.36056,-87.92833,2000-01-01,1938-01-01,"HODGES, AL US"
0.7745,59.4,METERS,GHCND:USC00013930,33.2533,-87.45,2020-01-01,1981-01-01,"HOLT LOCK AND DAM, AL US"
0.4993,71.6,METERS,GHCND:USC00013931,32.23056,-86.34722,2020-01-01,2019-01-01,"HOPE HULL 3 S, AL US"
0.9994,185.9,METERS,GHCND:USC00014060,34.71667,-86.58333,1961-01-01,1949-01-01,"HUNTSVILLE SUBSTATION, AL US"
0.9439,185.9,METERS,GHCND:USC00014068,34.7,-86.583333,1954-01-01,1937-01-01,"HUNTSVILLE 4 SSE, AL US"
0.488,122.5,METERS,GHCND:USC00014080,32.24667,-85.41417,2020-01-01,1978-01-01,"HURTSBORO, AL US"
0.9986,305.1,METERS,GHCND:USC00014085,34.31667,-86.16667,1961-01-01,1960-01-01,"HUSTLEVILLE, AL US"
0.8394,494.1,METERS,GHCND:USC00014099,34.81667,-86.11667,1961-01-01,1937-01-01,"HYTOP, AL US"
0.9991,467,METERS,GHCND:USC00014115,34.71667,-85.68333,1961-01-01,1956-01-01,"IDER, AL US"
0.7926,3,METERS,GHCND:USC00014192,31.55,-88.01667,1958-01-01,1930-01-01,"JACKSON LOCK 1, AL US"
0.7188,67.1,METERS,GHCND:USC00014193,31.5253,-87.9277,2018-01-01,1962-01-01,"JACKSON, AL US"
0.869,146,METERS,GHCND:USC00014198,33.53333,-86.2,1959-01-01,1937-01-01,"JACKSON SHOALS, AL US"
0.7078,192,METERS,GHCND:USC00014209,33.82585,-85.78115,2020-01-01,1949-01-01,"JACKSONVILLE, AL US"
0.0967,113.1,METERS,GHCND:USC00014225,33.83333,-87.28333,1960-01-01,1899-01-01,"JASPER, AL US"
0.7317,148.1,METERS,GHCND:USC00014226,33.9048,-87.3154,2015-01-01,1960-01-01,"JASPER, AL US"
0.7495,44.5,METERS,GHCND:USC00014274,32.3237,-86.7827,2012-01-01,1981-01-01,"JONES BLUFF LOCK AND DAM, AL US"
0.9991,313.6,METERS,GHCND:USC00014280,34.2935,-86.5709,2021-01-01,2019-01-01,"JOPPA 1 SW, AL US"
0.9101,88.4,METERS,GHCND:USC00014306,32.6189,-86.2544,1992-01-01,1937-01-01,"JORDAN DAM, AL US"
0.8287,82.3,METERS,GHCND:USC00014431,31.24028,-86.19472,2006-01-01,1966-01-01,"KINSTON, AL US"
0.805,225.6,METERS,GHCND:USC00014502,32.9069,-85.4336,2020-01-01,1949-01-01,"LAFAYETTE 2 W, AL US"
0.7814,128,METERS,GHCND:USC00014603,32.96333,-86.52,1991-01-01,1937-01-01,"LAY DAM, AL US"
0.7761,182.9,METERS,GHCND:USC00014619,33.5228,-86.58,2015-01-01,1922-01-01,"LEEDS, AL US"
0.9681,180.1,METERS,GHCND:USC00014627,34.18333,-85.76667,1980-01-01,1949-01-01,"LEESBURG, AL US"
0.5041,39,METERS,GHCND:USC00014798,32.5811,-88.1897,2009-01-01,1897-01-01,"LIVINGSTON, AL US"
0.9225,88.1,METERS,GHCND:USC00014822,31.01667,-86.36667,1963-01-01,1938-01-01,"LOCKHART, AL US"
0.9051,156.1,METERS,GHCND:USC00014845,33.63333,-86.18333,1949-01-01,1897-01-01,"LINCOLN LOCK 4, AL US"
0.8744,85.3,METERS,GHCND:USC00014855,33.4527,-87.3572,1956-01-01,1949-01-01,"BANKHEAD LOCK AND DAM, AL US"
0.9993,137.2,METERS,GHCND:USC00014866,33.42583,-86.33861,1992-01-01,1982-01-01,"LOGAN MARTIN DAM, AL US"
0.9681,146.3,METERS,GHCND:USC00014884,31.78333,-85.55,1989-01-01,1958-01-01,"LOUISVILLE, AL US"
0.9995,,,GHCND:USC00014895,31.1,-85.166667,1910-01-01,1905-01-01,"LUCY, AL US"
0.7745,177.1,METERS,GHCND:USC00014976,34.7,-86.75,1974-01-01,1895-01-01,"MADISON, AL US"
0.9743,198.1,METERS,GHCND:USC00014996,33.5,-86.85,1976-01-01,1937-01-01,"MAGELLA, AL US"
1,54.9,METERS,GHCND:USC00015004,32.13333,-87.65,1950-01-01,1949-01-01,"MAGNOLIA, AL US"
0.5489,64,METERS,GHCND:USC00015108,32.63333,-87.3,1966-01-01,1896-01-01,"MARION, AL US"
0.8642,52.4,METERS,GHCND:USC00015112,32.70278,-87.26806,2004-01-01,1968-01-01,"MARION 7 NE, AL US"
0.8059,61.6,METERS,GHCND:USC00015116,32.44444,-87.17972,1968-01-01,1938-01-01,"MARION JUNCTION, AL US"
0.9565,61,METERS,GHCND:USC00015121,32.4715,-87.2313,2020-01-01,1951-01-01,"MARION JUNCTION 2 NE, AL US"
0.7789,125,METERS,GHCND:USC00015140,32.7028,-85.8936,1992-01-01,1925-01-01,"WALNUT HILL 3 W, AL US"
0.4997,57.9,METERS,GHCND:USC00015172,32.2603,-86.0003,2020-01-01,1957-01-01,"MATHEWS, AL US"
0.9986,164.9,METERS,GHCND:USC00015233,33.36667,-87.01667,1953-01-01,1952-01-01,"BESSEMER, AL US"
0.4997,106.7,METERS,GHCND:USC00015354,31.9305,-88.4587,2011-01-01,1940-01-01,"MELVIN, AL US"
0.8615,182.9,METERS,GHCND:USC00015382,32.88333,-87.33333,1969-01-01,1941-01-01,"MERTZ PONDVILLE TOWER, AL US"
0.0972,125.6,METERS,GHCND:USC00015397,32.03474,-85.47396,2020-01-01,1949-01-01,"MIDWAY, AL US"
0.7022,24.1,METERS,GHCND:USC00015417,32.1,-87.36667,1966-01-01,1930-01-01,"MILLERS FERRY, AL US"
0.9369,35.1,METERS,GHCND:USC00015420,32.1002,-87.3982,2012-01-01,1981-01-01,"MILLERS FERRY LOCK AND DAM, AL US"
0.2725,110,METERS,GHCND:USC00015427,31.63333,-88.31667,1938-01-01,1928-01-01,"MILLRY, AL US"
0.7431,83.8,METERS,GHCND:USC00015435,33.575,-88.0344,2020-01-01,1982-01-01,"MILLPORT 2 E, AL US"
0.7112,65.5,METERS,GHCND:USC00015439,32.4419,-85.8889,2013-01-01,1903-01-01,"MILSTEAD, AL US"
0.7614,113.1,METERS,GHCND:USC00015449,32.1,-87.03333,1977-01-01,1957-01-01,"MINTER 3 NW, AL US"
0.9279,106.7,METERS,GHCND:USC00015465,32.80444,-86.44639,1992-01-01,1937-01-01,"MITCHELL DAM, AL US"
0.9993,3,METERS,GHCND:USC00015483,30.68333,-88.03333,1965-01-01,1930-01-01,"MOBILE, AL US"
0.7614,488,METERS,GHCND:USC00015529,34.75,-86.51667,1961-01-01,1941-01-01,"MONTE SANO, AL US"
0.7245,125,METERS,GHCND:USC00015537,33.098,-86.8658,2020-01-01,1941-01-01,"MONTEVALLO, AL US"
0.9991,249.9,METERS,GHCND:USC00015539,33.1525,-86.92278,1997-01-01,1995-01-01,"MONTEVALLO 5 NW, AL US"
0.7495,67.1,METERS,GHCND:USC00015547,32.3036,-86.3997,2003-01-01,1996-01-01,"MONTGOMERY NUMBER 2, AL US"
0.6083,68.6,METERS,GHCND:USC00015553,32.26,-86.218,2020-01-01,1998-01-01,"MONTGOMERY 6 SW, AL US"
0.9872,78,METERS,GHCND:USC00015555,32.38333,-86.3,1954-01-01,1873-01-01,"MONTGOMERY WEATHER BUREAU OFFICE, AL US"
0.9124,192,METERS,GHCND:USC00015625,34.46667,-87.3,1961-01-01,1939-01-01,"MOULTON, AL US"
0.9378,189.6,METERS,GHCND:USC00015635,34.4884,-87.299,2021-01-01,1957-01-01,"MOULTON 2, AL US"
0.7889,36.6,METERS,GHCND:USC00015658,32.9963,-87.632,2020-01-01,1983-01-01,"MOUNDVILLE, AL US"
0.7994,164.6,METERS,GHCND:USC00015751,34.7586,-87.6411,2021-01-01,2012-01-01,"MUSCLE SHOALS WATER PLANT, AL US"
0.916,162.8,METERS,GHCND:USC00015752,34.78889,-87.53944,2012-01-01,2001-01-01,"MUSCLE SHOALS 3 NE, AL US"
0.9327,54.9,METERS,GHCND:USC00015785,31.71667,-87.26667,1966-01-01,1952-01-01,"NATCHEZ, AL US"
0.5,139.9,METERS,GHCND:USC00015842,31.4,-85.93333,1950-01-01,1949-01-01,"NEW BROCKTON, AL US"
0.1999,192,METERS,GHCND:USC00015847,34.51667,-87.56667,1961-01-01,1892-01-01,"NEWBURG, AL US"
0.9992,232,METERS,GHCND:USC00015862,34.9,-86.43333,1961-01-01,1944-01-01,"NEW MARKET, AL US"
0.6186,223.1,METERS,GHCND:USC00015867,34.91667,-86.45,1977-01-01,1957-01-01,"NEW MARKET, AL US"
0.494,42.4,METERS,GHCND:USC00015875,31.3458,-85.6227,1980-01-01,1894-01-01,"NEWTON, AL US"
0.5596,176.8,METERS,GHCND:USC00016000,33.3263,-86.7562,2006-01-01,1982-01-01,"OAK MOUNTAIN STATE PARK, AL US"
0.9991,109.7,METERS,GHCND:USC00016001,33.72222,-87.38306,2020-01-01,2018-01-01,"OAKMAN, AL US"
0.6825,335.3,METERS,GHCND:USC00016121,33.9265,-86.42116,2020-01-01,1898-01-01,"ONEONTA, AL US"
0.7495,195.1,METERS,GHCND:USC00016129,32.6592,-85.4492,2020-01-01,1957-01-01,"OPELIKA, AL US"
0.6558,61,METERS,GHCND:USC00016161,32.3,-87.23333,1972-01-01,1941-01-01,"ORRVILLE, AL US"
0.8882,179.8,METERS,GHCND:USC00016196,34.5528,-86.445,2021-01-01,2004-01-01,"OWENS CROSS ROADS 3 S, AL US"
0.8187,143.3,METERS,GHCND:USC00016218,31.53333,-85.68333,1985-01-01,1903-01-01,"OZARK 6 NNW, AL US"
0.9993,195.1,METERS,GHCND:USC00016226,34.7,-86.33333,1961-01-01,1936-01-01,"PAINT ROCK, AL US"
0.8846,220.1,METERS,GHCND:USC00016246,33.7449,-86.6418,2009-01-01,1949-01-01,"PALMERDALE, AL US"
0.9994,246.9,METERS,GHCND:USC00016328,33.6,-86.31667,1959-01-01,1951-01-01,"PELL CITY, AL US"
0.7053,292.9,METERS,GHCND:USC00016329,33.6,-86.26667,1976-01-01,1960-01-01,"PELL CITY, AL US"
0.7853,25.9,METERS,GHCND:USC00016334,32.22583,-88.02806,1995-01-01,1982-01-01,"PENNINGTON 2 NE, AL US"
0.9993,6.1,METERS,GHCND:USC00016335,32.13333,-88.03333,1958-01-01,1951-01-01,"PENNINGTON LOCK 2, AL US"
0.688,82.9,METERS,GHCND:USC00016362,32.65667,-87.09278,2000-01-01,1940-01-01,"PERRYVILLE, AL US"
0.2221,73.2,METERS,GHCND:USC00016370,31.58833,-87.26806,1949-01-01,1941-01-01,"PETERMAN, AL US"
1,118.9,METERS,GHCND:USC00016397,32.51667,-85.06667,1958-01-01,1957-01-01,"PHENIX CITY 5 NW, AL US"
0.9279,174,METERS,GHCND:USC00016398,32.5,-85.01667,1972-01-01,1959-01-01,"PHENIX CITY 2 NNW, AL US"
0.9716,52.1,METERS,GHCND:USC00016414,33.21667,-88.25,1976-01-01,1941-01-01,"PICKENSVILLE, AL US"
0.7953,80.8,METERS,GHCND:USC00016436,31.8812,-86.9865,2016-01-01,1968-01-01,"PINE APPLE, AL US"
0.6663,34.1,METERS,GHCND:USC00016460,31.98333,-87.6,1967-01-01,1941-01-01,"PINE HILL, AL US"
0.9761,146.3,METERS,GHCND:USC00016468,32.03333,-85.98333,1984-01-01,1942-01-01,"PINE LEVEL 4 ESE, AL US"
0.9681,185.3,METERS,GHCND:USC00016478,33.6906,-86.685,2014-01-01,1951-01-01,"PINSON, AL US"
0.687,115.8,METERS,GHCND:USC00016501,32.18333,-85.16667,1984-01-01,1969-01-01,"PITTSVIEW, AL US"
0.8527,70.1,METERS,GHCND:USC00016508,32.613,-86.9055,2017-01-01,1943-01-01,"PLANTERSVILLE 2 SSE, AL US"
0.9993,192,METERS,GHCND:USC00016521,34.95,-85.91667,1961-01-01,1950-01-01,"PLEASANT GROVE SCHOOL, AL US"
0.6844,92,METERS,GHCND:USC00016640,32.48333,-86.48333,1973-01-01,1901-01-01,"PRATTVILLE, AL US"
0.9995,107,METERS,GHCND:USC00016643,32.44528,-86.555,2006-01-01,2002-01-01,"PRATTVILLE 3 SW, AL US"
0.7614,54.9,METERS,GHCND:USC00016684,32.3,-86.25,1964-01-01,1923-01-01,"PRIMROSE FARM, AL US"
0.7038,78.9,METERS,GHCND:USC00016719,32.2,-88.35,1964-01-01,1894-01-01,"PUSHMATAHA, AL US"
0.333,146.3,METERS,GHCND:USC00016760,33.7075,-86.18444,2020-01-01,2012-01-01,"RAGLAND 2 SSW, AL US"
0.8326,402.9,METERS,GHCND:USC00016762,34.5,-85.86667,1961-01-01,1956-01-01,"RAINSVILLE, AL US"
0.7328,207,METERS,GHCND:USC00016805,34.43333,-88.13333,1978-01-01,1949-01-01,"RED BAY, AL US"
0.9041,174,METERS,GHCND:USC00016833,34.58333,-86.6,1974-01-01,1954-01-01,"REDSTONE ARSENAL, AL US"
0.7103,70.1,METERS,GHCND:USC00016847,33.37389,-88.00528,2020-01-01,1938-01-01,"REFORM, AL US"
0.8594,54.9,METERS,GHCND:USC00016937,31.35,-86.53333,1977-01-01,1928-01-01,"RIVER FALLS, AL US"
0.768,49.1,METERS,GHCND:USC00016988,30.5654,-87.7018,2020-01-01,1913-01-01,"ROBERTSDALE, AL US"
0.6965,182.9,METERS,GHCND:USC00017020,32.8711,-86.1758,2020-01-01,1955-01-01,"ROCKFORD 3 ESE, AL US"
0.5566,228.6,METERS,GHCND:USC00017025,33.158,-85.2911,2017-01-01,1939-01-01,"ROCK MILLS, AL US"
0.8883,225.9,METERS,GHCND:USC00017126,34.5,-87.73333,1961-01-01,1953-01-01,"RUSSELLVILLE, AL US"
0.7183,253,METERS,GHCND:USC00017131,34.51,-87.7319,2017-01-01,1954-01-01,"RUSSELLVILLE NUMBER 2, AL US"
0.7714,243.8,METERS,GHCND:USC00017157,34.1736,-86.8133,2021-01-01,1908-01-01,"SAINT BERNARD, AL US"
0.916,362.7,METERS,GHCND:USC00017207,34.2877,-85.968,2020-01-01,1949-01-01,"SAND MOUNT SUBSTATION, AL US"
0.7919,94.5,METERS,GHCND:USC00017282,33.7525,-87.04833,1991-01-01,1939-01-01,"SUMITON, AL US"
0.7003,187.5,METERS,GHCND:USC00017304,34.6736,-86.0536,2021-01-01,1895-01-01,"SCOTTSBORO, AL US"
0.9994,200.9,METERS,GHCND:USC00017310,34.68333,-86.01667,1961-01-01,1949-01-01,"SCOTTSBORO SUBSTATION, AL US"
0.4497,121.9,METERS,GHCND:USC00017326,32.4123,-85.1794,2016-01-01,1997-01-01,"SEALE, AL US"
0.615,118.9,METERS,GHCND:USC00017328,32.3,-85.16667,1964-01-01,1926-01-01,"SEALE, AL US"
0.7996,167.9,METERS,GHCND:USC00017329,32.3,-85.25,1958-01-01,1954-01-01,"SEALE 6 W, AL US"
0.8407,44.8,METERS,GHCND:USC00017366,32.411,-87.0144,2020-01-01,1895-01-01,"SELMA, AL US"
0.8882,156.1,METERS,GHCND:USC00017415,34.76667,-87.7,1953-01-01,1936-01-01,"SHEFFIELD TVA NURSERY, AL US"
0.9994,185.9,METERS,GHCND:USC00017460,34.85,-87.2,1961-01-01,1949-01-01,"SHOEMAKER SPRINGS, AL US"
0.7995,75.9,METERS,GHCND:USC00017576,31.11667,-85.6,1968-01-01,1949-01-01,"SLOCOMB, AL US"
0.8271,70.1,METERS,GHCND:USC00017620,32,-87.01667,1966-01-01,1938-01-01,"SNOW HILL, AL US"
0.9593,342,METERS,GHCND:USC00017671,34.4,-86.03333,1960-01-01,1936-01-01,"SOUTH HILL, AL US"
0.3998,178.3,METERS,GHCND:USC00017674,34.6375,-86.7269,2018-01-01,2014-01-01,"SOUTHWEST HUNTSVILLE, AL US"
0.3042,54.9,METERS,GHCND:USC00017733,30.7,-88.16667,1949-01-01,1904-01-01,"SPRING HILL, AL US"
0.8884,122.8,METERS,GHCND:USC00017947,33.91571,-88.10147,2011-01-01,1985-01-01,"SULLIGENT, AL US"
0.8568,94.5,METERS,GHCND:USC00017955,33.7525,-87.04833,1999-01-01,1993-01-01,"SUMITON, AL US"
0.9327,44.2,METERS,GHCND:USC00017963,32.5411,-87.1783,1979-01-01,1950-01-01,"SUTTLE, AL US"
0.9124,203.9,METERS,GHCND:USC00017968,34.88333,-86.21667,1961-01-01,1939-01-01,"SWAIM, AL US"
0.954,167.9,METERS,GHCND:USC00017994,33.16667,-86.28333,1958-01-01,1937-01-01,"SYLACAUGA 2 W, AL US"
0.8327,149.4,METERS,GHCND:USC00017999,33.2053,-86.2114,2020-01-01,1955-01-01,"SYLACAUGA 4 NE, AL US"
0.8689,427,METERS,GHCND:USC00018012,34.56667,-85.81667,1961-01-01,1939-01-01,"SYLVANIA, AL US"
0.7359,136.6,METERS,GHCND:USC00018024,33.4163,-86.135,2020-01-01,1892-01-01,"TALLADEGA, AL US"
0.4997,586.1,METERS,GHCND:USC00018032,33.3,-86.06667,1956-01-01,1949-01-01,"TALLADEGA HORN MOUNTAIN TOWER, AL US"
0.9041,53.9,METERS,GHCND:USC00018038,32.4392,-86.2025,2020-01-01,1979-01-01,"TALLAPOOSA WATER PLANT, AL US"
0.7961,118.9,METERS,GHCND:USC00018178,31.91722,-87.73472,2014-01-01,1897-01-01,"THOMASVILLE, AL US"
0.5,61,METERS,GHCND:USC00018204,32.9,-86.73333,1950-01-01,1949-01-01,"THORSBY 1 SW, AL US"
0.7495,207.3,METERS,GHCND:USC00018209,32.9205,-86.6708,2020-01-01,1957-01-01,"THORSBY EXPERIMENTAL STATION, AL US"
0.8903,87.8,METERS,GHCND:USC00018215,32.53333,-85.9,1991-01-01,1937-01-01,"THURLOW DAM, AL US"
0.7495,70.1,METERS,GHCND:USC00018223,31.33333,-88.25,1948-01-01,1941-01-01,"TIBBIE 2 S, AL US"
0.9994,253,METERS,GHCND:USC00018259,34.9,-86.73333,1961-01-01,1949-01-01,"TONEY, AL US"
0.8328,143,METERS,GHCND:USC00018285,33.81667,-86.73333,1965-01-01,1942-01-01,"TRAFFORD, AL US"
0.8102,165.2,METERS,GHCND:USC00018323,31.8075,-85.9722,2019-01-01,1909-01-01,"TROY, AL US"
0.8455,51.5,METERS,GHCND:USC00018380,33.2119,-87.6161,2020-01-01,1995-01-01,"TUSCALOOSA ACFD, AL US"
0.7185,46.3,METERS,GHCND:USC00018385,33.2097,-87.5936,2020-01-01,1900-01-01,"TUSCALOOSA OLIVER DAM, AL US"
0.7443,149,METERS,GHCND:USC00018391,34.71667,-87.71667,1939-01-01,1893-01-01,"TUSCUMBIA, AL US"
0.7813,134.1,METERS,GHCND:USC00018398,32.43333,-85.7,1954-01-01,1900-01-01,"TUSKEGEE, AL US"
0.866,128,METERS,GHCND:USC00018403,32.38333,-85.65,1968-01-01,1954-01-01,"TUSKEGEE 3 S, AL US"
0.6607,134.1,METERS,GHCND:USC00018438,32.0142,-85.7464,2016-01-01,1896-01-01,"UNION SPRINGS 9 S, AL US"
0.669,50.3,METERS,GHCND:USC00018446,32.5505,-87.5309,2014-01-01,1894-01-01,"UNIONTOWN, AL US"
0.7773,70.1,METERS,GHCND:USC00018454,33.2,-87.55,1955-01-01,1938-01-01,"UNIVERSITY, AL US"
0.7869,341.7,METERS,GHCND:USC00018469,34.5686,-85.6063,2019-01-01,1893-01-01,"VALLEY HEAD, AL US"
0.7495,149,METERS,GHCND:USC00018477,33.16667,-87.21667,1960-01-01,1941-01-01,"VANCE, AL US"
0.5728,90.8,METERS,GHCND:USC00018517,33.7392,-88.1275,2020-01-01,1939-01-01,"VERNON, AL US"
1,136.9,METERS,GHCND:USC00018580,32.6,-86.65,1982-01-01,1981-01-01,"VIDA 2 SE, AL US"
0.8766,205.7,METERS,GHCND:USC00018605,33.11667,-85.56667,1991-01-01,1935-01-01,"WADLEY, AL US"
0.4663,216.4,METERS,GHCND:USC00018608,33.13611,-85.58694,2020-01-01,2006-01-01,"WADLEY NR 2, AL US"
0.8128,62.5,METERS,GHCND:USC00018637,31.2099,-87.1788,2019-01-01,1945-01-01,"WALLACE 2 E, AL US"
0.5372,259.1,METERS,GHCND:USC00018648,34.0661,-86.3069,2020-01-01,1941-01-01,"WALNUT GROVE, AL US"
0.5996,125,METERS,GHCND:USC00018653,32.7028,-85.8936,2018-01-01,1994-01-01,"WALNUT HILL 3 W, AL US"
0.9993,164.9,METERS,GHCND:USC00018668,33.81667,-86.81667,1971-01-01,1968-01-01,"WARRIOR, AL US"
0.9995,158.5,METERS,GHCND:USC00018670,33.7924,-86.8258,1978-01-01,1973-01-01,"WARRIOR, AL US"
0.8355,33.5,METERS,GHCND:USC00018673,32.77472,-87.83056,2020-01-01,1960-01-01,"WARRIOR LOCK AND DAM, AL US"
0.5893,139.9,METERS,GHCND:USC00018686,34.91667,-88.06667,1976-01-01,1938-01-01,"WATERLOO, AL US"
0.6661,251.8,METERS,GHCND:USC00018692,33.36778,-85.49833,2006-01-01,2004-01-01,"WEDOWEE, AL US"
0.9993,179.8,METERS,GHCND:USC00018755,34.1324,-85.7926,1992-01-01,1982-01-01,"WEISS DAM, AL US"
0.8883,152.4,METERS,GHCND:USC00018809,33.1186,-87.1268,2020-01-01,1940-01-01,"WEST BLOCTON, AL US"
0.9993,283.5,METERS,GHCND:USC00018812,34.2834,-86.9142,2018-01-01,2007-01-01,"WEST POINT, AL US"
0.6266,97.2,METERS,GHCND:USC00018859,32.5937,-86.1664,2020-01-01,1895-01-01,"WETUMPKA, AL US"
0.9993,53.3,METERS,GHCND:USC00018862,32.44639,-86.14167,2002-01-01,1999-01-01,"WETUMPKA 8 SE, AL US"
0.8176,51.8,METERS,GHCND:USC00018867,31.6508,-87.7097,2007-01-01,1942-01-01,"WHATLEY, AL US"
0.9608,177.1,METERS,GHCND:USC00018875,34.78333,-87.35,1961-01-01,1936-01-01,"WHEELER DAM, AL US"
0.615,9.1,METERS,GHCND:USC00018925,32.28333,-88.01667,1959-01-01,1934-01-01,"WHITFIELD LOCK 3, AL US"
0.9993,192,METERS,GHCND:USC00018936,34.88333,-85.75,1961-01-01,1951-01-01,"WIDOWS CREEK STEAM PLANT, AL US"
0.9994,161.8,METERS,GHCND:USC00018980,34.8,-87.61667,1961-01-01,1949-01-01,"WILSON DAM, AL US"
0.7211,158.5,METERS,GHCND:USC00018998,33.9107,-87.8469,2020-01-01,1924-01-01,"WINFIELD 2 SW, AL US"
0.7046,103.9,METERS,GHCND:USC00019103,32.56667,-85.9,1969-01-01,1892-01-01,"YATES HYDRO PLANT, AL US"
0.9225,225.9,METERS,GHCND:USC00019350,34.95,-87.86667,1961-01-01,1949-01-01,"YOUNGS STORE, AL US"
0.7912,56.4,METERS,GHCND:USC00092161,32.45,-84.98333,1964-01-01,1893-01-01,"COLUMBUS DARDC, GA US"
0.6541,136.9,METERS,GHCND:USC00093782,32.6,-85.08333,1968-01-01,1914-01-01,"GOAT ROCK, AL US"
0.7161,175.3,METERS,GHCND:USC00099291,32.8861,-85.1838,2020-01-01,1894-01-01,"WEST POINT, GA US"
0.9993,245.1,METERS,GHCND:USR0000ABAN,34.14,-87.3622,2020-01-01,2006-01-01,"BANKHEAD ALABAMA, AL US"
0.7772,4.6,METERS,GHCND:USR0000ABNS,30.2528,-87.8125,2020-01-01,2003-01-01,"BON SECOUR ALABAMA, AL US"
0.545,365.8,METERS,GHCND:USR0000ALIR,34.4978,-85.6292,2020-01-01,1999-01-01,"LIRI ALABAMA, AL US"
0.8882,110.6,METERS,GHCND:USR0000AOKM,32.9572,-87.1706,2020-01-01,2003-01-01,"OAKMULGEE ALABAMA, AL US"
0.8327,83.8,METERS,GHCND:USR0000AOPE,31.0944,-86.5486,2020-01-01,2003-01-01,"OPEN POND FTS ALABAMA, AL US"
0.8882,276.8,METERS,GHCND:USR0000ASHK,33.6472,-85.6344,2020-01-01,2003-01-01,"SHOAL CREEK ALABAMA, AL US"
0.6813,182.9,METERS,GHCND:USR0000ATAL,33.4411,-86.0811,2020-01-01,1999-01-01,"TALLADEGA ALABAMA, AL US"
0.9994,91.7,METERS,GHCND:USW00003850,31.26667,-85.71667,1970-01-01,1954-01-01,"CAIRNS FIELD FORT RUCKER, AL US"
0.9993,190.2,METERS,GHCND:USW00003856,34.6441,-86.7869,2021-01-01,1958-01-01,"HUNTSVILLE INTNL AIRPORT, AL US"
0.9042,121,METERS,GHCND:USW00003878,31.86056,-86.01222,2021-01-01,2001-01-01,"TROY MUNICIPAL AIRPORT, AL US"
0.8176,100.6,METERS,GHCND:USW00003881,32.929,-87.1898,2018-01-01,1975-01-01,"CENTREVILLE 2.9 SW, AL US"
0.9993,226.8,METERS,GHCND:USW00003883,33.46667,-86.83333,1989-01-01,1979-01-01,"BIRMINGHAM WSFO, AL US"
0.6814,53,METERS,GHCND:USW00013821,32.38333,-86.35,1970-01-01,1949-01-01,"MAXWELL AFB, AL US"
0.7722,70.7,METERS,GHCND:USW00013829,32.35,-85,1992-01-01,1949-01-01,"FORT BENNING LAWSON FIELD, AL US"
0.5476,7.9,METERS,GHCND:USW00013838,30.62639,-88.06806,2021-01-01,1949-01-01,"MOBILE DOWNTOWN AIRPORT, AL US"
0.9494,114,METERS,GHCND:USW00013839,31.3167,-85.45,2021-01-01,2002-01-01,"DOTHAN REGIONAL AIRPORT, AL US"
0.7268,50,METERS,GHCND:USW00013850,32.33333,-86.98333,1970-01-01,1949-01-01,"CRAIG AFB, AL US"
0.6521,181.1,METERS,GHCND:USW00013871,33.5872,-85.8556,2021-01-01,1904-01-01,"ANNISTON METROPOLITAN AIRPORT, AL US"
0.9993,187.5,METERS,GHCND:USW00013876,33.56556,-86.745,2021-01-01,1930-01-01,"BIRMINGHAM AIRPORT, AL US"
0.8457,78,METERS,GHCND:USW00013885,31.41667,-87.03333,1961-01-01,1949-01-01,"EVERGREEN INTERMEDIATE FIELD, AL US"
0.9993,65.5,METERS,GHCND:USW00013894,30.68833,-88.24556,2021-01-01,1948-01-01,"MOBILE REGIONAL AIRPORT, AL US"
0.9993,61.6,METERS,GHCND:USW00013895,32.2997,-86.4075,2021-01-01,1948-01-01,"MONTGOMERY AIRPORT, AL US"
0.9261,164.6,METERS,GHCND:USW00013896,34.7441,-87.5997,2021-01-01,1940-01-01,"MUSCLE SHOALS AIRPORT, AL US"
0.916,143.9,METERS,GHCND:USW00023801,31.7901,-86.0004,2020-01-01,2009-01-01,"TROY 2 W, AL US"
0.7495,106.7,METERS,GHCND:USW00023802,31.8814,-87.7367,2020-01-01,2009-01-01,"THOMASVILLE 2 S, AL US"
0.9559,78.6,METERS,GHCND:USW00053820,31.41556,-87.04417,2021-01-01,1999-01-01,"EVERGREEN MIDDLETON FIELD, AL US"
0.6359,94.5,METERS,GHCND:USW00053843,31.30889,-86.39389,2020-01-01,2010-01-01,"ANDALUSIA OPP AIRPORT, AL US"
0.8795,180.4,METERS,GHCND:USW00053852,34.6525,-86.94528,2021-01-01,1997-01-01,"DECATUR PRYOR FIELD, AL US"
0.9992,74.4,METERS,GHCND:USW00053861,31.35583,-85.75111,2017-01-01,2008-01-01,"FORT RUCKER LOWE ARMY HELIPORT, AL US"
0.9608,172.2,METERS,GHCND:USW00053864,33.17833,-86.78167,2021-01-01,1996-01-01,"ALABASTER SHELBY CO AIRPORT, AL US"
0.9993,351.1,METERS,GHCND:USW00063857,34.2851,-85.9621,2020-01-01,2006-01-01,"GADSDEN 19 N, AL US"
0.9993,58.8,METERS,GHCND:USW00063858,32.4567,-87.2422,2020-01-01,2006-01-01,"SELMA 13 WNW, AL US"
0.9278,310.9,METERS,GHCND:USW00063862,34.5653,-85.6171,2020-01-01,2007-01-01,"VALLEY HEAD 1 SSW, AL US"
0.8565,189,METERS,GHCND:USW00063866,34.3337,-86.3156,2013-01-01,2007-01-01,"GUNTERSVILLE 2 SW, AL US"
0.9994,243.8,METERS,GHCND:USW00063867,34.1954,-86.7963,2019-01-01,2007-01-01,"CULLMAN 3 ENE, AL US"
0.9278,175.3,METERS,GHCND:USW00063868,34.6602,-87.3462,2020-01-01,2007-01-01,"COURTLAND 2 WSW, AL US"
0.7851,29,METERS,GHCND:USW00063869,30.5485,-87.8757,2020-01-01,2007-01-01,"FAIRHOPE 3 NE, AL US"
0.4997,95.7,METERS,GHCND:USW00063870,31.0425,-86.31167,2019-01-01,2006-01-01,"FLORALA MUNICIPAL AIRPORT, AL US"
0.9993,86.9,METERS,GHCND:USW00063872,31.95139,-85.12889,2021-01-01,2006-01-01,"EUFAULA WEEDON FIELD AIRPORT, AL US"
0.9995,96.6,METERS,GHCND:USW00063873,31.35,-85.66667,2017-01-01,2013-01-01,"OZARK FORT RUCKER, AL US"
0.4613,137.5,METERS,GHCND:USW00063874,31.84556,-86.61083,2018-01-01,2006-01-01,"GREENVILLE MAC CRENSHAW MEMORIAL AIRPORT, AL US"
0.9223,178,METERS,GHCND:USW00063891,32.8516,-86.6115,2020-01-01,2008-01-01,"CLANTON 2 NE, AL US"
0.8454,32.6,METERS,GHCND:USW00063892,32.8369,-88.1374,2020-01-01,2008-01-01,"GAINESVILLE 2 NE, AL US"
0.8454,85.3,METERS,GHCND:USW00063893,32.7169,-87.6226,2020-01-01,2008-01-01,"GREENSBORO 2 WNW, AL US"
0.9223,161.5,METERS,GHCND:USW00063894,34.7728,-87.6399,2020-01-01,2008-01-01,"MUSCLE SHOALS 2 N, AL US"
0.8565,219.5,METERS,GHCND:USW00063895,34.4535,-87.7104,2020-01-01,2007-01-01,"RUSSELLVILLE 4 SSE, AL US"
0.9992,193.9,METERS,GHCND:USW00063896,34.6941,-85.9998,2020-01-01,2007-01-01,"SCOTTSBORO 2 NE, AL US"
0.9992,47.9,METERS,GHCND:USW00063897,32.3349,-86.9787,2020-01-01,2008-01-01,"SELMA 6 SSE, AL US"
0.8328,51.8,METERS,GHCND:USW00063899,31.1449,-87.0518,2020-01-01,2009-01-01,"BREWTON 3 NNE, AL US"
0.9084,45.7,METERS,GHCND:USW00073801,33.2125,-87.5914,2020-01-01,2010-01-01,"NORTHPORT 2 S, AL US"
0.8178,187.1,METERS,GHCND:USW00073802,31.9155,-86.3115,2019-01-01,2009-01-01,"HIGHLAND HOME 2 S, AL US"
0.9993,160,METERS,GHCND:USW00073803,33.5721,-86.0573,2020-01-01,2009-01-01,"TALLADEGA 10 NNE, AL US"
0.9172,45.7,METERS,GHCND:USW00093806,33.2119,-87.6161,2021-01-01,1949-01-01,"TUSCALOOSA AIRPORT ASOS, AL US"
0.7138,21.9,METERS,GHCND:USW00093826,30.4,-87.6,1958-01-01,1952-01-01,"BARIN FIELD NAAS, AL US"
0.6186,97.8,METERS,GHCND:USW00093843,31.23333,-85.43333,1969-01-01,1949-01-01,"DOTHAN, AL US"
0.7106,274,METERS,GHCND:CA001206197,59.45,-136.3667,2019-01-01,1975-01-01,"PLEASANT CAMP, AK CA"
0.3331,243.5,METERS,GHCND:US1AKAB0021,61.312243,-149.495798,2017-01-01,2009-01-01,"EAGLE RIVER 2.6 ESE, AK US"
0.9989,35.4,METERS,GHCND:US1AKAB0052,61.1529,-149.9346,2020-01-01,2016-01-01,"ANCHORAGE 4.7 SSW, AK US"
0.9986,303.6,METERS,GHCND:US1AKFN0015,64.9186,-147.6304,2020-01-01,2019-01-01,"FAIRBANKS 5.7 N, AK US"
0.6661,17.7,METERS,GHCND:US1AKJB0011,58.35684,-134.53131,2020-01-01,2018-01-01,"JUNEAU 14.6 W, AK US"
0.6664,92.7,METERS,GHCND:US1AKMS0005,61.699466,-149.989656,2014-01-01,2009-01-01,"WILLOW 3.6 SE, AK US"
0.9991,132.6,METERS,GHCND:US1AKMS0011,61.61847,-149.12576,2020-01-01,2012-01-01,"PALMER 1.7 WNW, AK US"
0.8565,116.7,METERS,GHCND:US1AKMS0012,62.227249,-150.073073,2020-01-01,2014-01-01,"TALKEETNA 7.6 S, AK US"
0.6359,,,GHCND:US1AKPW0001,55.955264,-133.61775,2020-01-01,2010-01-01,"EDNA BAY 1.3 E, AK US"
0.2855,253,METERS,GHCND:USC00500040,61.7,-148.98333,1972-01-01,1966-01-01,"PALMER CORRECTION CE, AK US"
0.1153,9.1,METERS,GHCND:USC00500125,62.5,-164.41667,1942-01-01,1917-01-01,"AKULURAK, AK US"
0.5452,67.1,METERS,GHCND:USC00500172,61.18889,-149.80556,2003-01-01,1993-01-01,"ALASKA PACIFIC UNIVERSITY, AK US"
0.7495,21,METERS,GHCND:USC00500201,59.28333,-158.56667,1969-01-01,1958-01-01,"ALEKNAGIK, AK US"
0.3185,121.9,METERS,GHCND:USC00500230,66.56528,-152.6425,1998-01-01,1908-01-01,"ALLAKAKET, AK US"
0.9084,5.2,METERS,GHCND:USC00500235,70.3463,-150.9282,2021-01-01,2011-01-01,"ALPINE, AK US"
0.9991,944.9,METERS,GHCND:USC00500237,63.0429,-147.2479,2016-01-01,2011-01-01,"ALPINE CREEK LODGE, AK US"
0.3747,139.9,METERS,GHCND:USC00500238,61.71667,-148.9,1971-01-01,1964-01-01,"ALPINE INN, AK US"
0.6995,82.9,METERS,GHCND:USC00500243,60.9583,-149.1108,2020-01-01,1971-01-01,"ALYESKA, AK US"
0.545,136.9,METERS,GHCND:USC00500247,62.1925,-150.5033,2020-01-01,2010-01-01,"AMBER LAKE, AK US"
1,36.6,METERS,GHCND:USC00500249,67.08333,-157.85,1995-01-01,1994-01-01,"AMBLER, AK US"
0.9993,36.6,METERS,GHCND:USC00500260,67.08333,-157.86667,1992-01-01,1982-01-01,"AMBLER WEST, AK US"
0.9994,640.1,METERS,GHCND:USC00500270,68.16667,-151.76667,1961-01-01,1953-01-01,"ANAKTUVUK AUTO, AK US"
0.7996,35.7,METERS,GHCND:USC00500272,61.17472,-149.905,2009-01-01,2005-01-01,"ANCHORAGE ARCTIC AND INTERNATIONAL, AK US"
0.9559,39.9,METERS,GHCND:USC00500275,61.1561,-149.9847,2020-01-01,1998-01-01,"ANCHORAGE FORECAST OFFICE, AK US"
0.9993,304.8,METERS,GHCND:USC00500279,61.11667,-149.73333,1996-01-01,1993-01-01,"ANCHORAGE HILLSIDE, AK US"
0.9327,406.9,METERS,GHCND:USC00500281,61.1025,-149.7169,2020-01-01,2006-01-01,"ANCHORAGE UPPER DE ARMOUN, AK US"
0.4283,278.3,METERS,GHCND:USC00500284,61.0882,-149.7561,2020-01-01,2007-01-01,"ANCHORAGE RABBIT CREEK NUMBER 2, AK US"
0.3996,25,METERS,GHCND:USC00500286,61.19389,-149.88583,2008-01-01,2004-01-01,"ANCHORAGE MIDTOWN, AK US"
0.5997,54.9,METERS,GHCND:USC00500288,61.2,-149.78333,1961-01-01,1957-01-01,"ANCHORAGE 4 ESE, AK US"
0.6667,155.4,METERS,GHCND:USC00500299,64.34583,-149.19472,1999-01-01,1997-01-01,"ANDERSON, AK US"
0.5291,143.3,METERS,GHCND:USC00500302,61.6244,-149.3397,2007-01-01,1974-01-01,"ANDERSON LAKE, AK US"
0.2819,8.5,METERS,GHCND:USC00500310,57.49889,-134.58639,2010-01-01,1933-01-01,"ANGOON, AK US"
0.6377,28,METERS,GHCND:USC00500363,58.3183,-134.1003,2021-01-01,1917-01-01,"ANNEX CREEK, AK US"
0.3997,634,METERS,GHCND:USC00500396,68.11667,-145.53333,1996-01-01,1962-01-01,"ARCTIC VILLAGE, AK US"
0.2306,17.1,METERS,GHCND:USC00500433,52.22028,-174.20611,1949-01-01,1924-01-01,"ATKA AIRPORT, AK US"
0.3598,21.3,METERS,GHCND:USC00500452,52.83333,173.18333,1993-01-01,1919-01-01,"ATTU, AK US"
0.827,13.4,METERS,GHCND:USC00500464,58.3814,-134.645,2020-01-01,1963-01-01,"AUKE BAY, AK US"
0.9992,135,METERS,GHCND:USC00500490,64.8552,-147.7216,2021-01-01,2004-01-01,"AURORA, AK US"
0.6292,6.1,METERS,GHCND:USC00500522,57.08333,-134.83333,1963-01-01,1937-01-01,"BARANOF, AK US"
0.1999,24.1,METERS,GHCND:USC00500602,59.73333,-151.03333,1971-01-01,1957-01-01,"BEAR COVE, AK US"
0.6613,10.7,METERS,GHCND:USC00500657,55.3574,-131.69691,2016-01-01,1949-01-01,"BEAVER FALLS, AK US"
0.4372,22.9,METERS,GHCND:USC00500685,61.18333,-151.03333,1989-01-01,1974-01-01,"BELUGA, AK US"
0.6661,39.9,METERS,GHCND:USC00500702,61.55,-149.08333,1968-01-01,1966-01-01,"BRVRUD, AK US"
0.4613,38.7,METERS,GHCND:USC00500707,61.5632,-149.1542,2020-01-01,1969-01-01,"BEN S FARM, AK US"
0.9992,8.5,METERS,GHCND:USC00500766,58.55194,-152.60806,2000-01-01,1991-01-01,"BIG BAY RANGER STATION, AK US"
0.5997,67.1,METERS,GHCND:USC00500777,61.53333,-149.83333,1961-01-01,1957-01-01,"BIG LAKE, AK US"
0.571,54.9,METERS,GHCND:USC00500781,61.56667,-149.96667,1977-01-01,1971-01-01,"BIG LAKE 2, AK US"
0.8176,18.3,METERS,GHCND:USC00500788,60.81417,-152.29694,2010-01-01,1978-01-01,"BIG RIVER LAKES, AK US"
0.0555,14.9,METERS,GHCND:USC00500804,56.85,-135.55,1978-01-01,1943-01-01,"BIORKA ISLAND, AK US"
0.7495,256,METERS,GHCND:USC00500824,61.11667,-149.75,1972-01-01,1965-01-01,"ROCK RIDGE DRIVE, AK US"
0.9994,793.1,METERS,GHCND:USC00500910,64.06667,-141.11667,1957-01-01,1949-01-01,"BOUNDARY, AK US"
0.9223,11.9,METERS,GHCND:USC00500986,58.55,-155.81667,1964-01-01,1952-01-01,"BROOKS LAKE, AK US"
0.3498,13.1,METERS,GHCND:USC00501017,58.55,-155.78333,1990-01-01,1971-01-01,"BROOKS RIVER, AK US"
0.6246,75,METERS,GHCND:USC00501175,61.5836,-149.0055,2010-01-01,2003-01-01,"BUTTE 3 NNE, AK US"
0.3331,26.8,METERS,GHCND:USC00501180,61.5379,-149.0561,2012-01-01,2007-01-01,"BUTTE 1 W, AK US"
0.8177,6.1,METERS,GHCND:USC00501201,56.16667,-132.45,1931-01-01,1910-01-01,"CALDER, AK US"
0.3682,78.6,METERS,GHCND:USC00501220,61.1638,-149.7777,2019-01-01,2001-01-01,"CAMPBELL CREEK SCIENCE CENTER, AK US"
0.7995,42.7,METERS,GHCND:USC00501228,61.495,-149.75722,2005-01-01,2001-01-01,"CAMP TOGOWOODS, AK US"
0.1189,7,METERS,GHCND:USC00501230,65.93333,-161.91667,1950-01-01,1909-01-01,"CANDLE, AK US"
0.7175,25.9,METERS,GHCND:USC00501240,61.0183,-147.5147,2019-01-01,1981-01-01,"CANNERY CREEK, AK US"
0.9224,649.8,METERS,GHCND:USC00501243,63.3952,-148.895,2009-01-01,1984-01-01,"CANTWELL 2 E, AK US"
0.8744,689.5,METERS,GHCND:USC00501244,63.3724,-148.8441,2013-01-01,2006-01-01,"CANTWELL 4 E, AK US"
0.1139,6.1,METERS,GHCND:USC00501251,58.55,-133.67889,2013-01-01,1935-01-01,"CANYON ISLAND, AK US"
0.3331,302.1,METERS,GHCND:USC00501254,67.15,-141.75,1968-01-01,1963-01-01,"CANYON VILLAGE, AK US"
0.5802,13.7,METERS,GHCND:USC00501312,68.86667,-166.11667,1984-01-01,1954-01-01,"CAPE LISBURNE, AK US"
0.7737,144.8,METERS,GHCND:USC00501314,58.63333,-162.06666,1984-01-01,1954-01-01,"CAPE NEWENHAM, AK US"
0.6661,,,GHCND:USC00501316,55.96667,-133.8,1977-01-01,1975-01-01,"CAPE POLE, AK US"
0.6661,11,METERS,GHCND:USC00501341,68.1,-165.76667,1962-01-01,1960-01-01,"CAPE THOMPSON, AK US"
0.8883,88.1,METERS,GHCND:USC00501447,61.96667,-149.9,1957-01-01,1949-01-01,"CASWELL, AK US"
0.9991,76.2,METERS,GHCND:USC00501451,61.97361,-150.05944,1998-01-01,1996-01-01,"CASWELL 5 N, AK US"
0.1427,280.4,METERS,GHCND:USC00501458,65.5667,-144.7653,1954-01-01,1906-01-01,"CENTRAL NUMBER 2, AK US"
0.4197,280.4,METERS,GHCND:USC00501466,65.5667,-144.7653,2011-01-01,1962-01-01,"CENTRAL NUMBER 2, AK US"
0.8565,171,METERS,GHCND:USC00501475,66.63333,-143.71667,1968-01-01,1962-01-01,"CHALKYITSIK, AK US"
0.4648,577.6,METERS,GHCND:USC00501492,67.5111,-148.4925,2011-01-01,1969-01-01,"CHANDALAR LAKE, AK US"
0.5829,990.6,METERS,GHCND:USC00501497,68.0781,-149.5647,2012-01-01,2001-01-01,"CHANDALAR SHELF DOT, AK US"
0.7851,340.5,METERS,GHCND:USC00501557,64.83,-147.8525,2012-01-01,1999-01-01,"CHENA RIDGE, AK US"
0.2198,361.2,METERS,GHCND:USC00501574,65.0528,-146.0561,2011-01-01,1962-01-01,"CHENA HOT SPRINGS, AK US"
0.1666,9.1,METERS,GHCND:USC00501601,53.435,-167.331667,1942-01-01,1925-01-01,"CHERNOFSKI HARBOR, AK US"
0.5,,,GHCND:USC00501629,62.6667,-144.4167,1906-01-01,1905-01-01,"CHESTOCHENA, AK US"
0.9992,3,METERS,GHCND:USC00501641,57.66667,-136.08333,1957-01-01,1951-01-01,"CHICHAGOF, AK "
0.3633,284.1,METERS,GHCND:USC00501662,61.8,-148.45,1932-01-01,1911-01-01,"CHICKALOON, AK US"
0.2453,548.6,METERS,GHCND:USC00501684,64.0917,-141.9211,2020-01-01,1911-01-01,"CHICKEN, AK US"
0.9993,47.9,METERS,GHCND:USC00501763,57.61528,-152.36444,1998-01-01,1991-01-01,"CHINIAK, AK US"
0.6661,967.1,METERS,GHCND:USC00501814,62.08333,-142.01667,1972-01-01,1967-01-01,"CHISANA, AK US"
0.9986,9.1,METERS,GHCND:USC00501818,60.06666,-152.58333,1968-01-01,1967-01-01,"CHISIK ISLAND, AK US"
0.1537,196,METERS,GHCND:USC00501824,61.5223,-144.4407,2009-01-01,1919-01-01,"CHITINA, AK US"
0.571,153,METERS,GHCND:USC00501900,62.4,-150.25,1980-01-01,1974-01-01,"TRAPPERS CREEK CAMP, AK US"
0.725,412.7,METERS,GHCND:USC00501926,62.8255,-149.9061,2021-01-01,1971-01-01,"CHULITNA RIVER, AK US"
0.4649,182.3,METERS,GHCND:USC00501977,65.83333,-144.06667,1999-01-01,1957-01-01,"CIRCLE CITY, AK US"
0.5229,262.1,METERS,GHCND:USC00501987,65.4939,-144.6422,2020-01-01,1935-01-01,"CIRCLE HOT SPRINGS, AK US"
0.3598,150.9,METERS,GHCND:USC00502005,64.35472,-149.04361,1990-01-01,1966-01-01,"CLEAR 4 N, AK US"
0.8176,196.9,METERS,GHCND:USC00502015,64.2452,-149.1828,2020-01-01,2010-01-01,"CLEAR SKY, AK US"
0.6547,335.3,METERS,GHCND:USC00502019,64.05,-145.51667,1993-01-01,1965-01-01,"CLEARWATER, AK US"
0.6664,121.9,METERS,GHCND:USC00502041,55.3866,-160.7775,1910-01-01,1893-01-01,"COAL HARBOR, AK US"
0.1521,3,METERS,GHCND:USC00502084,56,-132.83333,2018-01-01,1973-01-01,"COFFMAN COVE, AK US"
0.9991,394.7,METERS,GHCND:USC00502101,64.31722,-141.41833,2010-01-01,2008-01-01,"O BRIEN CREEK, AK US"
0.6661,335.9,METERS,GHCND:USC00502103,67.26667,-150.23333,1976-01-01,1971-01-01,"COLDFOOT CAMP, AK US"
0.8565,274,METERS,GHCND:USC00502105,67.73333,-142.46667,1968-01-01,1962-01-01,"COLLEEN RIVER, AK US"
0.8445,182,METERS,GHCND:USC00502107,64.8603,-147.8484,2020-01-01,1950-01-01,"COLLEGE OBSERVATORY, AK US"
0.9993,256.9,METERS,GHCND:USC00502110,64.89222,-147.84528,2008-01-01,2005-01-01,"COLLEGE 3 NNW, AK US"
0.7563,298.1,METERS,GHCND:USC00502112,64.925,-147.88028,2013-01-01,1977-01-01,"COLLEGE 5 NW, AK US"
0.4993,273.4,METERS,GHCND:USC00502114,64.8264,-147.9589,2009-01-01,2008-01-01,"COLLEGE 4 WSW, AK US"
0.7722,153.9,METERS,GHCND:USC00502144,60.3925,-149.66611,2001-01-01,1958-01-01,"COOPER LAKE PROJECT, AK US"
0.3747,127.7,METERS,GHCND:USC00502147,60.49222,-149.80889,1956-01-01,1941-01-01,"COOPER LANDING KENAI R, AK US"
0.5933,114.3,METERS,GHCND:USC00502149,60.4875,-149.9681,2008-01-01,1977-01-01,"COOPER LANDING 5 W, AK US"
0.0999,304.8,METERS,GHCND:USC00502156,61.96667,-145.31667,1982-01-01,1903-01-01,"COPPER CENTER, AK US"
0.4282,313.9,METERS,GHCND:USC00502161,62.08333,-145.3,1968-01-01,1962-01-01,"COPPER VALLEY SCHOOL, AK US"
0.3497,7.6,METERS,GHCND:USC00502173,60.5561,-145.753,2014-01-01,1955-01-01,"CORDOVA NORTH, AK US"
0.1998,3,METERS,GHCND:USC00502179,60.5358,-145.778,2020-01-01,2006-01-01,"CORDOVA WWTP, AK US"
0.6664,29,METERS,GHCND:USC00502217,64.88333,-163.68333,1942-01-01,1937-01-01,"COUNCIL, AK US"
0.9993,21,METERS,GHCND:USC00502222,60.06667,-147.98333,1978-01-01,1975-01-01,"CRAB BAY, AK US"
0.341,13.1,METERS,GHCND:USC00502227,55.4772,-133.1408,2021-01-01,1937-01-01,"CRAIG, AK US"
0.9986,341.4,METERS,GHCND:USC00502241,64.92389,-147.665,1997-01-01,1996-01-01,"CRESTLINE, AK US"
0.406,61,METERS,GHCND:USC00502247,61.86667,-158.1,1971-01-01,1940-01-01,"CROOKED CREEK, AK US"
0.9993,157,METERS,GHCND:USC00502266,62.61667,-150.03333,1946-01-01,1943-01-01,"CURRY, AK US"
0.7195,322.8,METERS,GHCND:USC00502339,64.1172,-145.7511,2020-01-01,1996-01-01,"DELTA 6 N, AK US"
0.9986,363,METERS,GHCND:USC00502347,64.01667,-145.7,1968-01-01,1967-01-01,"DELTA JUNCTION, AK US"
0.9085,323.1,METERS,GHCND:USC00502350,64.0839,-145.6136,2015-01-01,1994-01-01,"DELTA 5 NE, AK US"
0.8328,342.9,METERS,GHCND:USC00502352,63.9647,-145.105,2020-01-01,1997-01-01,"DELTA JUNCTION 20 SE, AK US"
0.9993,110,METERS,GHCND:USC00502393,60.96667,-149.18333,1962-01-01,1959-01-01,"DEVILS CLUB, AK US"
0.5996,26.2,METERS,GHCND:USC00502457,59.05,-158.5167,1999-01-01,1920-01-01,"DILLINGHAM AIRPORT, AK US"
1,11.6,METERS,GHCND:USC00502465,59.18333,-158.83333,1982-01-01,1981-01-01,"DILLINGHAM 17 NW, AK US"
0.8744,413,METERS,GHCND:USC00502568,63.67459,-144.60409,2020-01-01,1997-01-01,"DRY CREEK, AK US"
0.5996,15.2,METERS,GHCND:USC00502586,53.91666,-166.50359,1920-01-01,1906-01-01,"DUTCH HARBOR, AK US"
0.4759,3,METERS,GHCND:USC00502587,53.895,-166.5433,2020-01-01,1916-01-01,"DUTCH HARBOR, AK US"
0.6083,259.1,METERS,GHCND:USC00502607,64.7856,-141.2036,2021-01-01,1907-01-01,"EAGLE, AK US"
0.9992,345.6,METERS,GHCND:USC00502610,58.2761,-134.514,2020-01-01,2011-01-01,"EAGLECREST BASE, AK US"
1,228.9,METERS,GHCND:USC00502638,61.31667,-149.5,1971-01-01,1970-01-01,"EAGLE RIVER, AK US"
0.1281,158.5,METERS,GHCND:USC00502642,61.2344,-149.2708,2020-01-01,1982-01-01,"EAGLE RIVER NATURE CENTER, AK US"
0.8882,172.8,METERS,GHCND:USC00502645,61.3193,-149.5435,2020-01-01,2003-01-01,"EAGLE RIVER GAKONA CIRCLE, AK US"
0.9996,652.3,METERS,GHCND:USC00502648,61.2225,-149.43861,1983-01-01,1977-01-01,"EAGLE RIVER SOUTH FORK, AK US"
0.7807,151.8,METERS,GHCND:USC00502656,61.2968,-149.4399,2020-01-01,1989-01-01,"EAGLE RIVER 5 SE, AK US"
0.5995,232,METERS,GHCND:USC00502665,62.53333,-150.28333,1980-01-01,1971-01-01,"EDGEMIRE LAKES, AK US"
0.7073,166.7,METERS,GHCND:USC00502707,64.66667,-147.1,2011-01-01,1947-01-01,"EIELSON FIELD, AK US"
0.0882,1146.4,METERS,GHCND:USC00502711,63.42583,-150.31167,2004-01-01,1971-01-01,"EIELSON VISITOR CENTER, AK US"
0.9994,7.9,METERS,GHCND:USC00502717,61.45,-149.33333,1954-01-01,1942-01-01,"EKLUTNA, AK US"
0.7402,267.9,METERS,GHCND:USC00502725,61.4,-149.15,1973-01-01,1947-01-01,"EKLUTNA LAKE, AK US"
0.805,11.6,METERS,GHCND:USC00502730,61.46667,-149.16667,1987-01-01,1952-01-01,"EKLUTNA PROJECT, AK US"
0.5291,195.1,METERS,GHCND:USC00502737,61.4495,-149.323,2019-01-01,2003-01-01,"EKLUTNA WTP, AK US"
0.7642,4.3,METERS,GHCND:USC00502825,62.78528,-164.49111,1994-01-01,1978-01-01,"EMMONAK, AK US"
0.3331,580,METERS,GHCND:USC00502835,61.45,-145.11667,1976-01-01,1971-01-01,"ERNESTINE, AK US"
0.9993,663.5,METERS,GHCND:USC00502868,64.87583,-148.04389,2010-01-01,1999-01-01,"ESTER DOME, AK US"
0.8327,199.6,METERS,GHCND:USC00502870,64.8464,-148.0256,2020-01-01,2003-01-01,"ESTER, AK US"
0.8689,192,METERS,GHCND:USC00502871,64.911,-147.9242,2020-01-01,1998-01-01,"ESTER 5 NE, AK US"
0.9986,352,METERS,GHCND:USC00502872,64.79194,-148.03667,2001-01-01,2000-01-01,"ESTER 4 S, AK US"
0.9986,241.1,METERS,GHCND:USC00502876,64.76944,-148.04639,2005-01-01,2004-01-01,"ESTER 2 SSW, AK US"
0.687,1018.9,METERS,GHCND:USC00502952,61.95,-147.16667,1968-01-01,1953-01-01,"EUREKA, AK US"
0.9993,130.1,METERS,GHCND:USC00502965,64.8172,-147.8739,2019-01-01,1999-01-01,"FAIRBANKS AIRPORT NUMBER 2, AK US"
0.9994,134.1,METERS,GHCND:USC00502970,64.83417,-147.79111,2013-01-01,1997-01-01,"FAIRBANKS MIDTOWN, AK US"
0.8394,323.1,METERS,GHCND:USC00503009,62.54222,-153.62056,2009-01-01,1985-01-01,"FAREWELL LAKE, AK US"
0.5995,153,METERS,GHCND:USC00503082,65.93333,-149.83333,1980-01-01,1971-01-01,"FIVE MILE, AK US"
0.9986,348.1,METERS,GHCND:USC00503083,64.40778,-146.94861,1997-01-01,1996-01-01,"FLAG HILL, AK US"
0.7495,99.1,METERS,GHCND:USC00503085,62.45,-158,1960-01-01,1933-01-01,"FLAT, AK US"
0.7821,39.9,METERS,GHCND:USC00503125,55.6,-131.41667,1926-01-01,1904-01-01,"FORTMANN HATCHERY, AK US"
0.782,494.1,METERS,GHCND:USC00503160,65.0033,-147.3408,2020-01-01,1998-01-01,"FORT KNOX MINE, AK US"
0.548,143.3,METERS,GHCND:USC00503163,61.2272,-149.6504,2020-01-01,1990-01-01,"FORT RICHARDSON WATER TREATMENT PLANT, AK US"
0.9991,133.5,METERS,GHCND:USC00503165,66.56639,-145.26556,2013-01-01,2011-01-01,"FORT YUKON NUMBER 2, AK US"
0.7078,236.2,METERS,GHCND:USC00503181,64.9591,-147.6261,2020-01-01,1997-01-01,"FOX 2 SE, AK US"
0.8565,83.8,METERS,GHCND:USC00503196,60.48222,-150.80556,2010-01-01,2004-01-01,"FUNNY RIVER, AK US"
0.7217,445,METERS,GHCND:USC00503205,62.3,-145.3,1988-01-01,1971-01-01,"GAKONA 1 N, AK US"
0.9986,563.9,METERS,GHCND:USC00503208,62.39139,-145.1325,2009-01-01,2008-01-01,"GAKONA 10 NE, AK US"
0.6246,812.6,METERS,GHCND:USC00503210,68.47889,-149.49,1978-01-01,1971-01-01,"GALBRAITH LAKE AIRPORT, AK US"
0.6396,46.3,METERS,GHCND:USC00503212,64.7408,-156.8755,2021-01-01,1997-01-01,"GALENA, AK US"
0.4065,288,METERS,GHCND:USC00503275,64.9766,-147.5211,2020-01-01,1962-01-01,"GILMORE CREEK, AK US"
0.9991,6.1,METERS,GHCND:USC00503283,60.93333,-149.16667,1964-01-01,1956-01-01,"GIRDWOOD, AK US"
0.3926,13.7,METERS,GHCND:USC00503294,58.4561,-135.8692,2021-01-01,1966-01-01,"GLACIER BAY, AK US"
0.7603,671.2,METERS,GHCND:USC00503299,61.1,-149.6936,2016-01-01,1971-01-01,"GLEN ALPS, AK US"
0.4906,421.5,METERS,GHCND:USC00503304,62.1086,-145.5331,2020-01-01,1966-01-01,"GENNALLEN KCAM, AK US"
0.6661,214,METERS,GHCND:USC00503347,62.76667,-149.68333,1920-01-01,1918-01-01,"GOLD CREEK, AK US"
0.6246,289.6,METERS,GHCND:USC00503367,64.92611,-147.87667,2004-01-01,1997-01-01,"GOLDSTREAM, AK US"
0.9992,175.9,METERS,GHCND:USC00503368,64.8938,-147.8753,2020-01-01,2014-01-01,"GOLDSTREAM CREEK, AK US"
0.9991,3.7,METERS,GHCND:USC00503378,64.55,-163.0167,1944-01-01,1942-01-01,"GOLOVIN, AK US"
0.3332,31.1,METERS,GHCND:USC00503390,61.4,-149.85,1974-01-01,1969-01-01,"GOOSE BAY NIKE SITE, AK US"
0.916,4.9,METERS,GHCND:USC00503470,58.2,-136.15,1952-01-01,1941-01-01,"GULL COVE, AK US"
0.833,901.9,METERS,GHCND:USC00503473,61.9,-147.3,1971-01-01,1966-01-01,"GUNSIGHT, AK US"
0.677,53.3,METERS,GHCND:USC00503500,59.26667,-135.45,1987-01-01,1957-01-01,"HAINES TERMINAL, AK US"
0.9992,29,METERS,GHCND:USC00503502,59.2381,-135.4494,2020-01-01,2000-01-01,"HAINES NUMBER 2, AK US"
0.8119,249.9,METERS,GHCND:USC00503504,59.4503,-136.3615,2020-01-01,1989-01-01,"HAINES 40 NW, AK CA"
0.4996,9.1,METERS,GHCND:USC00503530,59.6,-151.16667,1992-01-01,1987-01-01,"HALIBUT COVE, AK "
0.2855,289,METERS,GHCND:USC00503558,69.16667,-148.83333,1977-01-01,1971-01-01,"HAPPY VALLEY CAMP, AK US"
0.8143,304.8,METERS,GHCND:USC00503573,61.98722,-152.07583,2007-01-01,1981-01-01,"HAYES RIVER, AK US"
0.7218,431.9,METERS,GHCND:USC00503585,63.8674,-148.9943,2012-01-01,1977-01-01,"HEALY, AK US"
0.6547,6.7,METERS,GHCND:USC00503605,57.2177,-134.8769,2020-01-01,1992-01-01,"HIDDEN FALLS HACHRY, AK US"
0.7991,732.1,METERS,GHCND:USC00503628,62.85,-149.11667,1968-01-01,1964-01-01,"HIGH LAKE LODGE, AK US"
0.318,9.1,METERS,GHCND:USC00503650,55.4909,-132.6222,2017-01-01,1952-01-01,"HOLLIS, AK US"
0.623,6.1,METERS,GHCND:USC00503655,62.18333,-159.76667,1971-01-01,1895-01-01,"HOLY CROSS, AK US"
0.9986,309.4,METERS,GHCND:USC00503668,59.66583,-151.56361,2004-01-01,2003-01-01,"HOMER 2 NW, AK US"
0.863,274.9,METERS,GHCND:USC00503670,59.68333,-151.65,1973-01-01,1952-01-01,"THE TICES, AK US"
0.8857,329.2,METERS,GHCND:USC00503672,59.7444,-151.6347,2021-01-01,1978-01-01,"HOMER 8 NW, AK US"
0.5997,85,METERS,GHCND:USC00503680,59.7,-151.31667,1978-01-01,1974-01-01,"HOMER RESEARCH CENTE, AK US"
0.9577,156.1,METERS,GHCND:USC00503682,59.71611,-151.32556,2011-01-01,1988-01-01,"HOMER 9 E, AK US"
0.9993,428.2,METERS,GHCND:USC00503687,59.76222,-151.21028,2005-01-01,2002-01-01,"HOMER 13 NE, AK US"
0.6972,39.6,METERS,GHCND:USC00503695,58.1071,-135.4277,2020-01-01,1978-01-01,"HOONAH, AK US"
1,11.9,METERS,GHCND:USC00503705,61.53333,-166.08333,1938-01-01,1937-01-01,"HOOPER BAY, AK US"
0.464,54.9,METERS,GHCND:USC00503720,60.8983,-149.6286,2007-01-01,1980-01-01,"HOPE, AK US"
0.1034,82.3,METERS,GHCND:USC00503731,61.63111,-149.80111,2014-01-01,1986-01-01,"HOUSTON, AK US"
0.6534,166.1,METERS,GHCND:USC00503765,66.06667,-154.23333,1967-01-01,1942-01-01,"HUGHES, AK US"
0.7851,298.7,METERS,GHCND:USC00503908,64.05,-157.83333,2004-01-01,1991-01-01,"ILLINOIS CREEK, AK US"
0.6837,371.9,METERS,GHCND:USC00503910,65.98333,-153.68333,1985-01-01,1967-01-01,"INDIAN MOUNTAIN, AK US"
0.9993,92,METERS,GHCND:USC00503925,59.75,-153.23333,1962-01-01,1955-01-01,"INISKIN, AK US"
0.7911,36.6,METERS,GHCND:USC00503933,59.555,-154.49833,2006-01-01,1959-01-01,"INTRICATE BAY, AK US"
0.6661,457.2,METERS,GHCND:USC00504089,55.2167,-132.5333,1918-01-01,1916-01-01,"JUMBO MINE, AK US"
0.4326,15.2,METERS,GHCND:USC00504092,58.2988,-134.4111,1965-01-01,1899-01-01,"JUNEAU DOWNTOWN, AK US"
0.464,15.2,METERS,GHCND:USC00504094,58.2988,-134.4111,2020-01-01,1965-01-01,"JUNEAU DOWNTOWN, AK US"
0.9992,32.3,METERS,GHCND:USC00504103,58.4002,-134.5694,2020-01-01,2011-01-01,"JUNEAU FORECAST OFFICE, AK US"
0.7995,48.5,METERS,GHCND:USC00504104,58.35444,-134.47944,2007-01-01,2003-01-01,"JUNEAU LEMON CREEK, AK US"
0.7363,10.7,METERS,GHCND:USC00504107,58.3869,-134.7658,2020-01-01,2002-01-01,"JUNEAU LENA POINT, AK US"
0.545,74.7,METERS,GHCND:USC00504109,58.4058,-134.7468,2013-01-01,2003-01-01,"JUNEAU MILE 17, AK US"
0.3844,36.9,METERS,GHCND:USC00504110,58.41667,-134.53333,1977-01-01,1965-01-01,"JUNEAU 9 NW, AK US"
0.9992,12.5,METERS,GHCND:USC00504112,58.2865,-134.385,2020-01-01,2011-01-01,"JUNEAU DOUGLAS WWTP, AK US"
0.9993,13.7,METERS,GHCND:USC00504117,58.2944,-134.6753,2016-01-01,2013-01-01,"JUNEAU OUTER POINT, AK US"
0.1232,21.3,METERS,GHCND:USC00504155,56.96667,-133.9,1992-01-01,1920-01-01,"KAKE, AK US"
0.5,6.1,METERS,GHCND:USC00504161,57.5667,-152.45,1930-01-01,1929-01-01,"KALSIN BAY, AK US"
0.9991,116.1,METERS,GHCND:USC00504329,57.35,-154.03333,1953-01-01,1951-01-01,"KARLUK LAKE 2, AK US"
0.9995,110,METERS,GHCND:USC00504333,57.45,-154.13333,1959-01-01,1954-01-01,"KARLUK RIVER, AK US"
0.7642,9.1,METERS,GHCND:USC00504342,55.633333,-132.56667,1941-01-01,1925-01-01,"KASAAN, AK US"
0.5518,21.3,METERS,GHCND:USC00504425,60.36516,-151.37398,1997-01-01,1931-01-01,"KASILOF 3 NW, AK US"
0.6245,3,METERS,GHCND:USC00504429,59.46667,-151.55,1975-01-01,1968-01-01,"KASITSNA BAY, AK US"
0.2498,3,METERS,GHCND:USC00504444,60.2,-144.55,1927-01-01,1908-01-01,"KATALA, AK US"
0.4797,38.4,METERS,GHCND:USC00504550,60.66917,-151.32278,2007-01-01,1983-01-01,"KENAI 9 N, AK US"
0.5473,673.9,METERS,GHCND:USC00504555,61.48333,-142.88333,1946-01-01,1905-01-01,"KENNECOTT, AK US"
0.5712,366.1,METERS,GHCND:USC00504560,61.73333,-144.95,1967-01-01,1961-01-01,"KENNEY LAKE, AK US"
0.5997,378,METERS,GHCND:USC00504567,61.6797,-144.7633,2011-01-01,2002-01-01,"KENNY LAKE 7 SE, AK US"
0.4995,617.2,METERS,GHCND:USC00504570,58.8667,-135.1333,1941-01-01,1936-01-01,"KENSINGTON MINE, AK US"
0.9993,89.9,METERS,GHCND:USC00504594,55.4519,-131.8183,2021-01-01,2011-01-01,"KETCHIKAN 10 N, AK US"
0.9993,487.7,METERS,GHCND:USC00504621,64.9156,-148.2711,2021-01-01,1996-01-01,"KEYSTONE RIDGE, AK US"
0.4997,30.5,METERS,GHCND:USC00504762,64.970386,-168.053192,1940-01-01,1937-01-01,"KING ISLAND, AK US"
0.6208,18.3,METERS,GHCND:USC00504812,58.1913,-152.3722,2020-01-01,1955-01-01,"KITOI BAY, AK US"
0.1474,3,METERS,GHCND:USC00504898,55.83333,-133.08333,1989-01-01,1929-01-01,"KLAWOCK, AK US"
0.666,26.8,METERS,GHCND:USC00504899,55.55158,-133.06469,2021-01-01,2019-01-01,"KLAWOCK WATER PLANT, AK US"
0.7996,27.7,METERS,GHCND:USC00504929,59.4,-135.9,1918-01-01,1909-01-01,"KLUKWAN, AK US"
0.9986,24.1,METERS,GHCND:USC00504943,61.46667,-149.71667,1952-01-01,1951-01-01,"KNIK, AK US"
0.3598,42.7,METERS,GHCND:USC00504964,66.9,-156.86667,1977-01-01,1953-01-01,"KOBUK, AK US"
0.9992,243.8,METERS,GHCND:USC00504971,64.19417,-149.43139,2012-01-01,2000-01-01,"KOBE HILL, AK US"
0.6466,11.9,METERS,GHCND:USC00504984,57.75,-152.51667,1949-01-01,1916-01-01,"KODIAK NF, AK US"
0.823,16.5,METERS,GHCND:USC00504991,57.8048,-152.3561,2021-01-01,2005-01-01,"KODIAK WWTP, AK US"
0.9995,36.9,METERS,GHCND:USC00505010,59.41667,-154.86667,1959-01-01,1955-01-01,"KOKHANOK BAY, AK US"
0.916,9.1,METERS,GHCND:USC00505051,67.25,-162.8,1994-01-01,1983-01-01,"KOTZEBUE 25 N, AK "
0.9991,18.3,METERS,GHCND:USC00505091,64.93333,-161.15,1990-01-01,1988-01-01,"KOYUK, AK US"
0.9993,19.5,METERS,GHCND:USC00505136,70.3289,-149.6114,2021-01-01,1983-01-01,"KUPARUK, AK US"
0.7053,136.9,METERS,GHCND:USC00505318,64.83333,-147.61667,1960-01-01,1944-01-01,"FORT WAINWRIGHT, AK US"
0.9995,18,METERS,GHCND:USC00505346,59.45,-158.9,1954-01-01,1950-01-01,"LAKE ALEKNAGIK, AK US"
0.9986,577.6,METERS,GHCND:USC00505354,67.5111,-148.4925,1964-01-01,1963-01-01,"CHANDALAR LAKE, AK US"
0.7993,21,METERS,GHCND:USC00505374,59.56667,-159.03333,1961-01-01,1952-01-01,"LAKE NERKA, AK US"
0.7267,723.9,METERS,GHCND:USC00505397,62.45278,-146.67889,2001-01-01,1991-01-01,"LAKE SUSITNA, AK US"
0.1499,5.5,METERS,GHCND:USC00505425,57.53333,-153.96667,1993-01-01,1954-01-01,"LARSEN BAY, AK US"
0.9995,3,METERS,GHCND:USC00505458,56.88333,-154.25,1963-01-01,1958-01-01,"LAZY BAY, AK "
0.7562,223.4,METERS,GHCND:USC00505464,61.6266,-149.0365,2020-01-01,1984-01-01,"LAZY MOUNTAIN, AK US"
0.4779,213.4,METERS,GHCND:USC00505506,59.43333,-136.28333,1981-01-01,1959-01-01,"LINGER LONGER, AK US"
0.9995,304.8,METERS,GHCND:USC00505512,64.89444,-147.34111,2001-01-01,1997-01-01,"LITTLE CHENA NUMBER 3, AK US"
0.6661,137.2,METERS,GHCND:USC00505517,65.75,-168.93333,1941-01-01,1939-01-01,"LITTLE DIOMEDE, AK RS"
0.7289,4.3,METERS,GHCND:USC00505519,56.383,-134.6497,2021-01-01,1937-01-01,"LITTLE PORT WALTER, AK US"
1,136.9,METERS,GHCND:USC00505525,61.63333,-149.81667,1963-01-01,1962-01-01,"LITTLE SUSITNA, AK US"
0.1193,197.8,METERS,GHCND:USC00505534,65.5225,-148.5497,2004-01-01,1938-01-01,"LIVENGOOD DOT, AK US"
0.4993,9.1,METERS,GHCND:USC00505544,70.91667,-153.25,1981-01-01,1980-01-01,"LONELY, AK "
0.833,14,METERS,GHCND:USC00505602,59.88333,-147.75,1978-01-01,1973-01-01,"MAC LEOD HARBOR, AK US"
0.7292,17.4,METERS,GHCND:USC00505604,60.5181,-148.0931,2020-01-01,1984-01-01,"MAIN BAY, AK US"
0.2953,922,METERS,GHCND:USC00505607,62.98611,-144.47917,2008-01-01,1965-01-01,"MANKOMEN LAKE, AK US"
0.524,82.9,METERS,GHCND:USC00505644,64.9988,-150.638,2012-01-01,1931-01-01,"MANLEY HOT SPRINGS, AK US"
0.9989,152.7,METERS,GHCND:USC00505645,65.1225,-150.2277,2020-01-01,2016-01-01,"MANLEY HOT SPRINGS 15 NE, AK US"
0.8176,54.9,METERS,GHCND:USC00505721,61.53333,-149.08333,1952-01-01,1942-01-01,"PALMER 4 SSE, AK US"
0.4613,128,METERS,GHCND:USC00505728,61.65,-149.2,1953-01-01,1941-01-01,"MATANUSKA VALLEY 9, AK US"
0.8456,67.1,METERS,GHCND:USC00505731,61.61667,-149.1,1954-01-01,1942-01-01,"MATANUSKA VALLEY 12, AK US"
0.8829,52.4,METERS,GHCND:USC00505733,61.5663,-149.2541,2020-01-01,1918-01-01,"MATANUSKA EXPERIMENTAL FARM, AK US"
0.7137,107,METERS,GHCND:USC00505734,61.61667,-149.21667,1950-01-01,1944-01-01,"MATANUSKA VALLEY 15, AK US"
0.4997,15.2,METERS,GHCND:USC00505735,61.53333,-149.43333,1954-01-01,1951-01-01,"WASILLA 3 S, AK US"
0.8881,469.4,METERS,GHCND:USC00505752,61.43333,-142.9,1976-01-01,1968-01-01,"MC CARTHY 1 NE, AK US"
0.8568,469.4,METERS,GHCND:USC00505754,61.43333,-142.9,1983-01-01,1977-01-01,"MC CARTHY 1 NE, AK US"
0.866,381,METERS,GHCND:USC00505757,61.418,-142.9961,2013-01-01,1984-01-01,"MCCARTHY 3 SW, AK US"
0.7444,630.9,METERS,GHCND:USC00505778,63.7175,-148.9692,2020-01-01,1923-01-01,"MCKINLEY PARK, AK US"
0.9991,107.6,METERS,GHCND:USC00505780,61.57778,-149.565,2008-01-01,2006-01-01,"MEADOW LAKES, AK US"
0.9993,198.1,METERS,GHCND:USC00505789,62.58333,-150.23333,1969-01-01,1966-01-01,"MC KINLEY VIEW, AK US"
0.9991,458.1,METERS,GHCND:USC00505810,61.35,-142.68333,1966-01-01,1964-01-01,"MAY CREEK, AK US"
0.9993,27.1,METERS,GHCND:USC00505851,58.4,-134.53333,1943-01-01,1940-01-01,"MENDENHALL, AK US"
0.7495,720.5,METERS,GHCND:USC00505857,62.933,-143.5741,2013-01-01,2010-01-01,"MENTASTA LAKE 7 E BARTELL CREEK, AK US"
0.9991,6.1,METERS,GHCND:USC00505860,55.73944,-133.255,2010-01-01,2008-01-01,"MEYERS CHUCK, AK US"
1,228.6,METERS,GHCND:USC00505873,65.19056,-147.25417,1999-01-01,1998-01-01,"MILE 39 STEESE, AK US"
0.9993,691.9,METERS,GHCND:USC00505875,65.51667,-145.33333,1990-01-01,1987-01-01,"MILE 101 STEESE, AK US"
0.4995,350.5,METERS,GHCND:USC00505878,61.26667,-145.26667,1964-01-01,1959-01-01,"MILE 47 CAMP, AK US"
0.7495,267.9,METERS,GHCND:USC00505879,65.2,-147.2,1976-01-01,1973-01-01,"MILE 41 STEESE, AK US"
0.7217,292.6,METERS,GHCND:USC00505880,65.22222,-147.16667,2013-01-01,1996-01-01,"MILE 42 STEESE, AK US"
0.7008,312.4,METERS,GHCND:USC00505881,63.9033,-152.2816,2021-01-01,1945-01-01,"MINCHUMINA, AK US"
0.7495,639.5,METERS,GHCND:USC00505882,62.945,-143.37833,1999-01-01,1996-01-01,"MINERAL LAKES, AK US"
0.11,39.6,METERS,GHCND:USC00505884,57.8426,-152.4585,2018-01-01,1910-01-01,"MONASHKA CREEK DAM, AK US"
0.7495,157.6,METERS,GHCND:USC00505891,64.71361,-147.15806,2000-01-01,1997-01-01,"MOOSE CREEK, AK US"
0.2947,150,METERS,GHCND:USC00505894,60.5029,-149.4261,2019-01-01,1942-01-01,"MOOSE PASS 3 NW, AK US"
0.9986,120.1,METERS,GHCND:USC00505896,61.25,-149.66667,1968-01-01,1967-01-01,"MOOSE RUN FORT RICHA, AK US"
0.8176,121.9,METERS,GHCND:USC00505898,59.4,-135.9,1957-01-01,1947-01-01,"HAINES HIGHWAY MILE, AK US"
1,18,METERS,GHCND:USC00506062,59.28333,-158.58333,1951-01-01,1950-01-01,"MOSQUITO POINT, AK US"
0.9995,14.9,METERS,GHCND:USC00506078,62.11667,-163.71667,1963-01-01,1949-01-01,"MOUNTAIN VILLAGE, AK US"
0.5997,305.1,METERS,GHCND:USC00506086,61.3,-149.43333,1978-01-01,1974-01-01,"MOUNT MAGNIFICENT, AK US"
0.9406,890,METERS,GHCND:USC00506147,62.3977,-142.9966,2014-01-01,1981-01-01,"NABESNA, AK US"
0.833,71,METERS,GHCND:USC00506157,61.68306,-149.975,2006-01-01,2001-01-01,"NANCY LAKE, AK US"
0.3747,23.8,METERS,GHCND:USC00506166,58.7,-157.033333,1941-01-01,1918-01-01,"NAKNEK, AK US"
0.9995,54.9,METERS,GHCND:USC00506227,60.53333,-150.75,1954-01-01,1950-01-01,"STERLING, AK "
0.9993,757.7,METERS,GHCND:USC00506270,61.98333,-146.86667,1982-01-01,1979-01-01,"NELCHINA HIGHWAY CAM, AK US"
0.6359,111.9,METERS,GHCND:USC00506403,60.66667,-151.38333,1977-01-01,1967-01-01,"NIKISKI TERMINAL, AK US"
0.0274,125.9,METERS,GHCND:USC00506419,63.01806,-154.36389,2000-01-01,1928-01-01,"NIKOLAI, AK US"
0.7996,36.9,METERS,GHCND:USC00506441,60.05,-151.66667,1962-01-01,1958-01-01,"NINILCHIK, AK US"
0.1528,18.3,METERS,GHCND:USC00506463,67.57556,-162.96972,2008-01-01,1924-01-01,"NOATAK, AK US"
0.8565,20.7,METERS,GHCND:USC00506503,66.8333,-161,1926-01-01,1920-01-01,"NOORVIK, AK US"
0.8817,144.8,METERS,GHCND:USC00506581,64.7581,-147.3253,2020-01-01,1970-01-01,"NORTH POLE, AK US"
0.1493,34.1,METERS,GHCND:USC00506656,64.71861,-158.10222,2004-01-01,1918-01-01,"NULATO, AK US"
0.3781,136.9,METERS,GHCND:USC00506760,61,-159.98333,1962-01-01,1926-01-01,"NYAC, AK US"
0.9986,13.7,METERS,GHCND:USC00506762,61.6333,-161.9,1937-01-01,1936-01-01,"OHAGAMUTE, AK US"
1,113.1,METERS,GHCND:USC00506769,61.23333,-149.71667,1971-01-01,1969-01-01,"OIL WELL ROAD E P, AK US"
0.8456,402.3,METERS,GHCND:USC00506777,61.8,-144.98333,1995-01-01,1970-01-01,"OLD EDGERTON, AK US"
0.111,15.2,METERS,GHCND:USC00506783,57.2,-153.3,1986-01-01,1969-01-01,"OLD HARBOR, AK "
0.9986,,,GHCND:USC00506812,57.16667,-154.23333,1952-01-01,1951-01-01,"OLGA, AK US"
0.7495,,,GHCND:USC00506831,63.1667,-156.55,1941-01-01,1938-01-01,"OPHIR, AK US"
0.7687,12.2,METERS,GHCND:USC00506853,57.92556,-152.50111,2002-01-01,1990-01-01,"OUZINKIE, AK US"
0.6053,65.8,METERS,GHCND:USC00506870,61.5888,-149.0992,2019-01-01,1949-01-01,"PALMER JOB CORPS, AK US"
0.6662,67.1,METERS,GHCND:USC00506871,61.61667,-149.1,1977-01-01,1954-01-01,"PALMER 1 N, AK US"
0.5,39.9,METERS,GHCND:USC00506872,61.58333,-149.05,1962-01-01,1961-01-01,"PALMER 2 ESE, AK US"
0.9989,31.1,METERS,GHCND:USC00506873,61.53333,-149.08333,1960-01-01,1956-01-01,"PALMER 4 SE, AK US"
0.5,54.9,METERS,GHCND:USC00506874,61.53333,-149.08333,1955-01-01,1954-01-01,"PALMER 4 SSE, AK US"
0.6663,128,METERS,GHCND:USC00506875,61.65,-149.2,1963-01-01,1955-01-01,"MATANUSKA VALLEY 9, AK US"
0.9986,100.9,METERS,GHCND:USC00506880,61.6,-149.13333,1977-01-01,1976-01-01,"PALMER OBSERVATORY, AK US"
0.1249,823,METERS,GHCND:USC00507095,63.03222,-145.49833,1966-01-01,1943-01-01,"PAXSON, AK US"
0.4543,823,METERS,GHCND:USC00507097,63.03222,-145.49833,2007-01-01,1975-01-01,"PAXSON, AK US"
0.9086,839.1,METERS,GHCND:USC00507105,62.95,-145.5,1979-01-01,1969-01-01,"PAXSON RIVER, AK US"
0.5814,3.7,METERS,GHCND:USC00507141,57.9577,-136.2213,2021-01-01,1967-01-01,"PELICAN, AK US"
0.7495,335.3,METERS,GHCND:USC00507221,58.3,-134.3333,1920-01-01,1917-01-01,"PERSERVERENCE MINE, AK US"
0.9993,15.2,METERS,GHCND:USC00507281,65.0833,-164.9667,1940-01-01,1937-01-01,"PILGRIM SPRING, AK US"
0.4996,14.9,METERS,GHCND:USC00507304,57.61667,-157.56667,1944-01-01,1939-01-01,"PILOT POINT, AK US"
0.3634,,,GHCND:USC00507314,61.96667,-163,1933-01-01,1923-01-01,"PILOT STATION, AK US"
0.7772,20.4,METERS,GHCND:USC00507352,61.53333,-149.08333,1993-01-01,1976-01-01,"PLANT MATERIALS CNTR, AK US"
0.7138,6.1,METERS,GHCND:USC00507365,59.01667,-161.78333,1964-01-01,1944-01-01,"PLATINUM, AK US"
0.2412,4,METERS,GHCND:USC00507431,68.35,-166.8,1954-01-01,1926-01-01,"POINT HOPE AIRPORT, AK US"
0.9995,7.6,METERS,GHCND:USC00507442,69.73288,-163.00533,1958-01-01,1949-01-01,"POINT LAY, AK US"
0.1599,48.8,METERS,GHCND:USC00507444,61.41694,-150.08194,2008-01-01,1984-01-01,"POINT MACKENZIE, AK US"
0.9989,488,METERS,GHCND:USC00507465,59.36667,-136.26667,1932-01-01,1928-01-01,"PORCUPINE CREEK, AK US"
0.2306,11.9,METERS,GHCND:USC00507486,60.85,-148.98333,1949-01-01,1937-01-01,"PORTAGE, AK US"
0.3997,12.2,METERS,GHCND:USC00507494,60.81667,-148.98333,1993-01-01,1984-01-01,"PORTAGE 1 S, AK US"
0.6246,31.4,METERS,GHCND:USC00507502,60.785,-148.83889,1993-01-01,1986-01-01,"PORTAGE GLACIER VISITOR CENTER, AK US"
0.7709,576.7,METERS,GHCND:USC00507513,62.6211,-141.006,2020-01-01,1986-01-01,"PORT ALCAN, AK US"
0.6952,3.7,METERS,GHCND:USC00507557,56.2472,-134.6447,2017-01-01,1949-01-01,"PORT ALEXANDER, AK US"
0.7208,79.2,METERS,GHCND:USC00507570,60.2036,-154.3163,2020-01-01,1960-01-01,"PORT ALSWORTH, AK US"
0.1514,3.7,METERS,GHCND:USC00507669,65.25,-166.86667,1993-01-01,1895-01-01,"PORT CLARENCE, AK US"
0.9991,13.4,METERS,GHCND:USC00507721,56.31667,-133.61667,1986-01-01,1984-01-01,"PORT PROTECTION, AK "
0.6093,12.2,METERS,GHCND:USC00507738,60.0502,-148.0672,2020-01-01,1980-01-01,"PORT SAN JUAN, AK US"
0.5995,291.1,METERS,GHCND:USC00507778,66.82361,-150.66889,1980-01-01,1971-01-01,"PROSPECT CREEK, AK US"
0.966,22.9,METERS,GHCND:USC00507780,70.25,-148.33333,1998-01-01,1969-01-01,"PRUDHOE BAY, AK US"
0.584,566.3,METERS,GHCND:USC00507783,62.0911,-152.7349,2020-01-01,1944-01-01,"PUNTILLA, AK US"
0.5933,116.1,METERS,GHCND:USC00507891,65.5,-150.25,1933-01-01,1902-01-01,"RAMPART, AK US"
0.7495,121.9,METERS,GHCND:USC00507900,65.5,-150.13333,1969-01-01,1966-01-01,"RAMPART 2, AK US"
0.4997,648.9,METERS,GHCND:USC00507916,63.53333,-145.85,1943-01-01,1936-01-01,"RAPIDS, AK US"
0.1454,271,METERS,GHCND:USC00507977,64.28333,-146.33333,1971-01-01,1917-01-01,"RICHARDSON, AK US"
0.3075,386.5,METERS,GHCND:USC00507989,64.15,-145.85,1982-01-01,1970-01-01,"RIKAS LANDING, AK US"
0.6246,256,METERS,GHCND:USC00508025,61.11667,-149.75,1980-01-01,1973-01-01,"ROCK RIDGE DRIVE, AK US"
0.2379,214.9,METERS,GHCND:USC00508039,64.73333,-155.43333,1941-01-01,1921-01-01,"RUBY, AK US"
0.9986,121.9,METERS,GHCND:USC00508044,64.7425,-155.48417,2000-01-01,1999-01-01,"RUBY WEST, AK US"
0.7995,78.9,METERS,GHCND:USC00508047,64.8694,-155.1177,2013-01-01,2009-01-01,"RUBY 14 NE, AK US"
0.4759,15.2,METERS,GHCND:USC00508054,61.78333,-161.31667,1987-01-01,1967-01-01,"RUSSIAN MISSION, AK US"
0.9995,31.1,METERS,GHCND:USC00508100,56.6,-169.53333,1959-01-01,1955-01-01,"ST GEORGE ISLAND, AK US"
0.5622,94.8,METERS,GHCND:USC00508105,62.05278,-163.17111,1983-01-01,1968-01-01,"ST MARYS, AK US"
0.9087,97.5,METERS,GHCND:USC00508107,62.06667,-163.3,1991-01-01,1981-01-01,"ST MARYS AIRPORT, AK US"
0.2058,11,METERS,GHCND:USC00508114,63.5,-162,1933-01-01,1900-01-01,"ST MICHAEL, AK US"
0.8744,496.8,METERS,GHCND:USC00508130,68.76083,-148.87306,2006-01-01,1999-01-01,"SAG RIVER D O T, AK US"
0.2416,207.3,METERS,GHCND:USC00508140,64.49417,-146.97667,2010-01-01,1920-01-01,"SALCHA, AK US"
0.1764,233.8,METERS,GHCND:USC00508156,64.5254,-146.3726,2013-01-01,1997-01-01,"SALCHA RIVER AT JOHNSON S, AK US"
0.2598,6.4,METERS,GHCND:USC00508183,55.31944,-160.52083,1994-01-01,1945-01-01,"SAND POINT AIRPORT, AK US"
0.1333,16.2,METERS,GHCND:USC00508239,63.69361,-170.48083,1989-01-01,1930-01-01,"SAVOONGA, AK US"
0.4996,6.1,METERS,GHCND:USC00508273,54.41667,-164.75,1941-01-01,1936-01-01,"SCOTCH CAP LIGHT STATION, AK US"
0.3995,6.1,METERS,GHCND:USC00508307,56.55,-134.05,1936-01-01,1932-01-01,"SECLUSION HARBOR, AK US"
1,6.1,METERS,GHCND:USC00508341,66.6,-160.03333,1955-01-01,1953-01-01,"SELAWIK, AK US"
0.085,6.1,METERS,GHCND:USC00508350,59.43333,-151.7,1964-01-01,1918-01-01,"SELDOVIA, AK US"
0.5513,129.2,METERS,GHCND:USC00508375,60.1883,-149.6274,2011-01-01,1983-01-01,"SEWARD 8 NW, AK US"
0.6781,157.9,METERS,GHCND:USC00508377,60.3538,-149.3483,2013-01-01,1986-01-01,"SEWARD 19 N, AK US"
1,21.3,METERS,GHCND:USC00508379,62.7,-159.56667,1986-01-01,1985-01-01,"SHAGELUK, AK US"
0.9992,3,METERS,GHCND:USC00508400,57.35,-152.91667,1964-01-01,1951-01-01,"SHEARWATER BAY, AK US"
0.9993,847.3,METERS,GHCND:USC00508409,61.8125,-147.4992,2010-01-01,2007-01-01,"SHEEP MOUNTAIN LODGE, AK US"
0.3937,2.1,METERS,GHCND:USC00508437,66.24958,-166.08936,1952-01-01,1920-01-01,"SHISHMAREF AIRPORT, AK US"
0.9986,,,GHCND:USC00508450,55.8,-131.3667,1916-01-01,1915-01-01,"SHRIMP BAY, AK US"
0.7853,365.8,METERS,GHCND:USC00508470,61.5175,-144.19139,2006-01-01,1993-01-01,"SILVER LAKE, AK US"
0.7773,20.4,METERS,GHCND:USC00508503,57.05,-135.33333,1989-01-01,1900-01-01,"SITKA MAGNETIC OBSERVATORY, AK US"
0.2498,10.7,METERS,GHCND:USC00508505,57.0466,-135.3497,2020-01-01,2009-01-01,"SITKA WATER TREATMENT PLANT, AK US"
0.3387,10.7,METERS,GHCND:USC00508525,59.4547,-135.3136,2020-01-01,1903-01-01,"SKAGWAY, AK US"
0.9993,285.6,METERS,GHCND:USC00508530,59.5272,-135.2319,2012-01-01,2009-01-01,"SKAGWAY 6 NE, AK US"
0.5997,173.7,METERS,GHCND:USC00508532,59.46667,-135.31667,1979-01-01,1975-01-01,"SKAGWAY 1 NW, AK US"
0.5879,668.1,METERS,GHCND:USC00508547,62.7089,-143.9808,2007-01-01,1957-01-01,"SLANA, AK US"
0.7495,737.6,METERS,GHCND:USC00508550,62.71667,-143.91667,1977-01-01,1974-01-01,"SLANA AIRPORT, AK US"
0.3712,86.9,METERS,GHCND:USC00508554,61.7,-157.18333,1963-01-01,1929-01-01,"SLEETMUTE, AK US"
0.7137,757.7,METERS,GHCND:USC00508556,61.98333,-146.86667,1976-01-01,1970-01-01,"NELCHINA HIGHWAY CAM, AK US"
1,6.1,METERS,GHCND:USC00508558,55.31667,-130.78333,1950-01-01,1949-01-01,"SMEATON BAY, AK US"
0.263,8.8,METERS,GHCND:USC00508584,58.1421,-133.7385,2020-01-01,1964-01-01,"SNETTISHAM POWER PLANT, AK US"
0.5954,704.7,METERS,GHCND:USC00508594,62.0302,-146.693,2009-01-01,1963-01-01,"SNOWSHOE LAKE, AK US"
0.4995,34.1,METERS,GHCND:USC00508612,60.46667,-151.03333,1968-01-01,1963-01-01,"SOLDOTNA, AK US"
0.7641,54.9,METERS,GHCND:USC00508615,60.4194,-151.1336,2020-01-01,2004-01-01,"SOLDOTNA 5 SSW, AK US"
0.7302,597.4,METERS,GHCND:USC00508625,62.53333,-145.51667,1996-01-01,1971-01-01,"SOURDOUGH 1 N, AK US"
0.4998,335.9,METERS,GHCND:USC00508648,61.28333,-149.46667,1970-01-01,1965-01-01,"SOUTH FORK, AK US"
0.5933,481.6,METERS,GHCND:USC00508666,61.1,-155.55,1985-01-01,1954-01-01,"SPARREVOHN, AK US"
0.4372,6.1,METERS,GHCND:USC00508672,58.13333,-134.23333,1930-01-01,1915-01-01,"SPEEL RIVER, AK US"
0.5711,54.9,METERS,GHCND:USC00508727,60.53333,-150.75,1967-01-01,1954-01-01,"STERLING, AK "
0.9991,89,METERS,GHCND:USC00508731,60.4905,-150.9188,2020-01-01,2012-01-01,"STERLING 6 SW, AK US"
0.1904,,,GHCND:USC00508745,61.766667,-156.63333,1968-01-01,1948-01-01,"STONY RIVER, AK US"
0.8565,,,GHCND:USC00508755,61.5333,-144.1,1924-01-01,1918-01-01,"STRELNA, AK US"
0.9986,1.5,METERS,GHCND:USC00508807,55.2667,-132.7,1917-01-01,1916-01-01,"SULZER, AK US"
0.1665,990.6,METERS,GHCND:USC00508813,63.14833,-145.54083,1997-01-01,1968-01-01,"SUMMIT LAKE, AK US"
0.4543,1214,METERS,GHCND:USC00508815,61.25,-149.55,1971-01-01,1961-01-01,"SUMMIT NIKE SITE, AK US"
0.7268,,,GHCND:USC00508855,60.9167,-149.5833,1914-01-01,1904-01-01,"SUNRISE, AK US"
0.6662,,,GHCND:USC00508882,61.33333,-150.66667,1946-01-01,1932-01-01,"SUSITNA, AK US"
0.4997,45.1,METERS,GHCND:USC00508884,61.91278,-150.09889,2011-01-01,2004-01-01,"SUSITNA LANDING, AK US"
0.9995,228.9,METERS,GHCND:USC00508886,62.75,-149.7,1974-01-01,1969-01-01,"SUSITNA MEADOWS, AK US"
0.7054,167.6,METERS,GHCND:USC00508915,61.7138,-148.9088,2011-01-01,1978-01-01,"SUTTON 1 W, AK US"
0.8566,798.6,METERS,GHCND:USC00508945,61.81667,-147.55,1999-01-01,1979-01-01,"TAHNETA PASS, AK US"
0.2498,92,METERS,GHCND:USC00509005,60.21667,-154.36667,1959-01-01,1940-01-01,"TANALIAN POINT, AK US"
0.6667,,,GHCND:USC00509085,61.3333,-144.9167,1907-01-01,1905-01-01,"TEIKHILL, AK US"
0.9991,198.1,METERS,GHCND:USC00509098,63.39611,-153.27056,2004-01-01,1999-01-01,"TELIDA, AK US"
0.4862,6.1,METERS,GHCND:USC00509102,65.26083,-166.35944,1963-01-01,1927-01-01,"TELLER, AK US"
0.4998,6.1,METERS,GHCND:USC00509113,57.78333,-135.78333,1951-01-01,1946-01-01,"TENAKEE, AK US"
0.5829,6.1,METERS,GHCND:USC00509121,57.78333,-135.23333,1980-01-01,1969-01-01,"TENAKEE SPRINGS, AK US"
0.4207,777.8,METERS,GHCND:USC00509139,63.13333,-147.53333,1976-01-01,1958-01-01,"THE GRACIOUS HOUSE, AK US"
0.5,274.9,METERS,GHCND:USC00509144,59.68333,-151.65,1974-01-01,1973-01-01,"THE TICES, AK US"
0.9991,762.9,METERS,GHCND:USC00509146,61.13333,-145.75,1954-01-01,1952-01-01,"THOMPSON PASS, AK US"
0.9992,87.2,METERS,GHCND:USC00509148,55.6918,-132.5246,2020-01-01,2011-01-01,"THORNE BAY, AK US"
0.5319,495.3,METERS,GHCND:USC00509313,63.3337,-143.0372,2017-01-01,1956-01-01,"TOK, AK US"
0.9991,505.4,METERS,GHCND:USC00509314,63.3155,-143.0058,2020-01-01,2012-01-01,"TOK NUMBER 2, AK US"
0.5829,499.9,METERS,GHCND:USC00509315,63.32833,-142.99722,2009-01-01,1998-01-01,"TOK D O T, AK US"
0.3298,481.3,METERS,GHCND:USC00509385,61.651,-145.1702,2014-01-01,1915-01-01,"TONSINA, AK US"
0.9986,110,METERS,GHCND:USC00509396,62.31667,-150.23333,1969-01-01,1968-01-01,"TRAPPERS CREEK, AK US"
0.5,153,METERS,GHCND:USC00509397,62.4,-150.25,1971-01-01,1970-01-01,"TRAPPERS CREEK CAMP, AK US"
0.6996,129.5,METERS,GHCND:USC00509398,62.26222,-150.42278,2007-01-01,1998-01-01,"TRAPPER CREEK 7 SW, AK US"
0.6534,734.9,METERS,GHCND:USC00509410,63.43333,-145.76667,1978-01-01,1953-01-01,"TRIMS CAMP, AK US"
0.8818,99.1,METERS,GHCND:USC00509421,60.55,-150.53333,1987-01-01,1971-01-01,"TRI NAL ACRES, AK US"
